[
  {
    "name": "Neelkanth Star DC Charging Station",
    "state": "Haryana",
    "city": "Gurugram",
    "address": "Neelkanth Star Karnal, NH 44, Gharunda, Kutail, Haryana 132114",
    "lattitude": 29.6019,
    "longitude": 76.9803,
    "type": 12
  },
  {
    "name": "Galleria DC Charging Station",
    "state": "Haryana",
    "city": "Gurugram",
    "address": "DLF Phase IV, Sector 28, Gurugram, Haryana 122022",
    "lattitude": 28.4673,
    "longitude": 77.0818,
    "type": 12
  },
  {
    "name": "Highway Xpress (Jaipur-Delhi) DC charging station",
    "state": "Rajasthan",
    "city": "Behror",
    "address": "Jaipur to Delhi Road, Behror Midway, Behror, Rajasthan 301701",
    "lattitude": 27.8751,
    "longitude": 76.276,
    "type": 12
  },
  {
    "name": "Food Carnival DC Charging Station",
    "state": "Uttar Pradesh",
    "city": "Khatauli",
    "address": "Fun and Food Carnival, NH 58, Khatauli Bypass, Bhainsi, Uttar Pradesh 251201",
    "lattitude": 29.3105,
    "longitude": 77.7218,
    "type": 12
  },
  {
    "name": "Food Carnival AC Charging Station",
    "state": "Uttar Pradesh",
    "city": "Khatauli",
    "address": "NH 58, Khatauli Bypass, Bhainsi, Uttar Pradesh 251201",
    "lattitude": 29.3105,
    "longitude": 77.7218,
    "type": 12
  },
  {
    "name": "Krishna Hansraj Hotel Una DC charging station",
    "state": "Himachal Pradesh",
    "city": "Una",
    "address": "Old Hoshiarpur Rd, Una, Himachal Pradesh 174303",
    "lattitude": 31.4668,
    "longitude": 76.2568,
    "type": 12
  },
  {
    "name": "SG Jabli DC Charging Station",
    "state": "Himachal Pradesh",
    "city": "Kasauli",
    "address": "VPO - Jabli, NH-22, Teh, Kasauli, Himachal Pradesh",
    "lattitude": 30.879,
    "longitude": 76.9948,
    "type": 12
  },
  {
    "name": "SG Jabli  AC Charging Station",
    "state": "Himachal Pradesh",
    "city": "Kasauli",
    "address": "VPO - Jabli, NH-22, Teh, Kasauli, Himachal Pradesh",
    "lattitude": 30.879,
    "longitude": 76.9948,
    "type": 12
  },
  {
    "name": "SG Karnal DC Charging Station",
    "state": "Haryana",
    "city": "Karnal",
    "address": "131 km Milestone, G. T, GT Karnal Rd, near Karna Lake, Karnal, Haryana 132001",
    "lattitude": 29.7379,
    "longitude": 76.9756,
    "type": 12
  },
  {
    "name": "SG Karnal AC Charging Station",
    "state": "Haryana",
    "city": "Karnal",
    "address": "131 km Milestone, G. T, GT Karnal Rd, near Karna Lake, Karnal, Haryana 132001",
    "lattitude": 29.7379,
    "longitude": 76.9756,
    "type": 12
  },
  {
    "name": "Neelkanth Star AC charging  station",
    "state": "Haryana",
    "city": "karnal",
    "address": "Neelkanth Star Karnal, NH 44, Gharunda, Kutail, Haryana 132114",
    "lattitude": 29.6019,
    "longitude": 76.9803,
    "type": 12
  },
  {
    "name": "Deep Brothers IOCL AC Charging Station",
    "state": "Haryana",
    "city": "Darbaripur",
    "address": "Deep Brothers, Palra Road, Darbaripur",
    "lattitude": 28.3861,
    "longitude": 77.0063,
    "type": 12
  },
  {
    "name": "Synergy Solutions AC Charging Station 2",
    "state": "Maharashtra",
    "city": "Pune",
    "address": "Synergy Solutions, Shop No 9 , Modak Prasad, 410, Narayan Peth,Pune",
    "lattitude": 18.538,
    "longitude": 73.8485,
    "type": 12
  },
  {
    "name": "IOCL Rajokri Station",
    "state": "Delhi",
    "city": "New Delhi",
    "address": "NH 8 Exit 4, Samalka, New Delhi, Delhi 110037",
    "lattitude": 28.5248,
    "longitude": 77.101,
    "type": 12
  },
  {
    "name": "VEEV A2B Kallar",
    "state": "Tamil Nadu",
    "city": "Mettupalayam",
    "address": "A2B, Kallar Road, Mettupalayam, Tamil Nadu",
    "lattitude": 11.3217,
    "longitude": 76.9163,
    "type": 12
  },
  {
    "name": "VEEV Sathya Nursery",
    "state": "Tamil Nadu",
    "city": "Mettupalayam",
    "address": "Kallar, Mettupalayam, Tamil Nadu",
    "lattitude": 11.33,
    "longitude": 76.9027,
    "type": 12
  },
  {
    "name": "IOCL Nehru Nagar Station",
    "state": "Delhi",
    "city": "New Delhi",
    "address": "10-C, Nehru Nagar, Ring Rd, near Lajpat Nagar, New Delhi, Delhi 110065",
    "lattitude": 28.5682,
    "longitude": 77.2531,
    "type": 12
  },
  {
    "name": "IOCL Mathura Road",
    "state": "Delhi",
    "city": "New Delhi",
    "address": "No A12, Mathura Rd, near Telephone Exchange, Friends Colony East, New Delhi, Delhi 110025",
    "lattitude": 28.566,
    "longitude": 77.2664,
    "type": 12
  },
  {
    "name": "IOCL Chahar AC Charging Station",
    "state": "Haryana",
    "city": "Gurugram",
    "address": "Basai Rd, Vikas Nagar, Sector 9, Gurugram, Haryana 122018",
    "lattitude": 28.456,
    "longitude": 77.001,
    "type": 12
  },
  {
    "name": "Kothari Enterprises  AC1",
    "state": "Maharashtra",
    "city": "Khopoli",
    "address": "Kothari Brothers, Laxminagar, Khopoli, Maharashtra 410203",
    "lattitude": 18.7876,
    "longitude": 73.3475,
    "type": 12
  },
  {
    "name": "Windlass River Valley AC Charging Station",
    "state": "Uttarakhand",
    "city": "Dehradun",
    "address": "Windlass River Valley, Harrawala/Kuanwala, Haridwar Road, NH-72, Dehradun, Uttarakhand 248005",
    "lattitude": 30.2482,
    "longitude": 78.0961,
    "type": 12
  },
  {
    "name": "Mindra Polar International AC Station",
    "state": "Gujarat",
    "city": "Ahmedabad",
    "address": "Rahul Tower, 4,Vraj Vihar -6 B/H, Prernatirth Derasar Rd, Satellite, Ahmedabad, Gujarat 380015",
    "lattitude": 23.0158,
    "longitude": 72.5178,
    "type": 12
  },
  {
    "name": "Lonavla Wax Museum DC Charging Station",
    "state": "Maharashtra",
    "city": "Lonavla",
    "address": "69/1 near Lonavla College, opp. neeta volvo, Valvan, Lonavla, Maharashtra 410403 M-9766666469",
    "lattitude": 18.763,
    "longitude": 73.4252,
    "type": 12
  },
  {
    "name": "Heritage City AC Charging Station",
    "state": "Haryana",
    "city": "Gurugram",
    "address": "Heritage City 581-600 Flats, Heritage City, Sector 25, Gurugram, Haryana 122022",
    "lattitude": 28.4823,
    "longitude": 77.0766,
    "type": 12
  },
  {
    "name": "Hotel Fairmont Jaipur AC Station",
    "state": "Rajasthan",
    "city": "Kukas",
    "address": "Hotel Fairmont Jaipur, Riico, 2, Jaipur Engineering College Rd, Kukas, Rajasthan 302028",
    "lattitude": 27.0307,
    "longitude": 75.8899,
    "type": 12
  },
  {
    "name": "The Westin Pushkar AC Charger",
    "state": "Rajasthan",
    "city": "Pushkar",
    "address": "The Westin Pushkar Resort & Spa, Khasra No. 1242 1243, 1196/1726, Village Surajkund, Motisar Rd, Pushkar, Rajasthan 305022",
    "lattitude": 26.4547,
    "longitude": 74.5046,
    "type": 12
  },
  {
    "name": "WeWork Circle Demo",
    "state": "Haryana",
    "city": "Gurugram",
    "address": "4th Floor, The Galaxy Hotel, Behind 32nd Milestone Off NH 8, Sector 15, Gurugram, Haryana 122001",
    "lattitude": 28.4632,
    "longitude": 77.049,
    "type": 12
  },
  {
    "name": "Karma Lakelands AC Charger",
    "state": "Haryana",
    "city": "Gurugram",
    "address": "Karma Lakeland, NH-8, Sector 80, Gurugram, Haryana 122002",
    "lattitude": 28.3639,
    "longitude": 76.9607,
    "type": 12
  },
  {
    "name": "Statiq RnD Centre AC Charging Station",
    "state": "Haryana",
    "city": "Gurgaon",
    "address": "Statiq RnD Centre, Plot 80A, Phase V, Udyog Vihar, Sector 19, Gurugram, Haryana 122017",
    "lattitude": 28.4997,
    "longitude": 77.0839,
    "type": 12
  },
  {
    "name": "JMD Gardens",
    "state": "Haryana",
    "city": "Gurugram",
    "address": "Unnamed Road, Sector 33, Gurugram, Haryana 122018",
    "lattitude": 28.4336,
    "longitude": 77.0349,
    "type": 12
  },
  {
    "name": "Mindra Crispy Culture AC Charging Station",
    "state": "Gujarat",
    "city": "Ahmedabad",
    "address": "Narayan Nagar Society, Narayan Nagar, Ahmedabad, Gujarat 380007",
    "lattitude": 22.9989,
    "longitude": 72.5594,
    "type": 12
  },
  {
    "name": "IOCL Dhaula Kuan Charging Station",
    "state": "Delhi",
    "city": "New Delhi",
    "address": "Ring Rd, opposite Gurudwara, Smriti Vatika, North West Moti Bagh, New Delhi, Delhi 110021",
    "lattitude": 28.5874,
    "longitude": 77.1713,
    "type": 12
  },
  {
    "name": "Tellus Power DC Charging Station",
    "state": "Maharashtra",
    "city": "Pune",
    "address": "AH47, Maharashtra 415406",
    "lattitude": 17.0749,
    "longitude": 74.2227,
    "type": 12
  },
  {
    "name": "RSTV Charging Hub Meerut",
    "state": "Uttar Pradesh",
    "city": "Meerut",
    "address": "Meerut, Uttar Pradesh 250001",
    "lattitude": 28.9955,
    "longitude": 77.7057,
    "type": 12
  },
  {
    "name": "Synergy Solutions AC Charging Station 1",
    "state": "Maharashtra",
    "city": "Pune",
    "address": "office 9. Modak Prasad ,Oppo Rastrabhasha Bhavan",
    "lattitude": 18.5145,
    "longitude": 73.8489,
    "type": 12
  },
  {
    "name": "Inspacco Circle Station",
    "state": "Maharashtra",
    "city": "Pune",
    "address": "Shreenath Society, Veerbhadra Nagar, Baner, Pune, Maharashtra 411045",
    "lattitude": 18.5619,
    "longitude": 73.7718,
    "type": 12
  },
  {
    "name": "Circle Test Station Goa",
    "state": "Goa",
    "city": "Pune",
    "address": "Isidorio Baptista Rd, Pajifond, Margao, Goa 403601",
    "lattitude": 15.2735,
    "longitude": 73.959,
    "type": 12
  },
  {
    "name": "Mindra D S Fasteners Charging Station",
    "state": "Gujarat",
    "city": "Pune",
    "address": "National Highway 27 (8B), Opp. 80 ft. Road End, Opp. K.S. Diesels, Rajkot-360 003, Gujarat, India",
    "lattitude": 22.473,
    "longitude": 70.895,
    "type": 12
  },
  {
    "name": "HP Mira Bhayandar DC Charging Station",
    "state": "Maharashtra",
    "city": "Mira Bhayandar",
    "address": "NH-8, Mashachapada, Mira Road, Mira Bhayandar, Maharashtra",
    "lattitude": 19.2747,
    "longitude": 72.8856,
    "type": 12
  },
  {
    "name": "HP Pitam Pura DC Charging Station",
    "state": "Delhi",
    "city": "New Delhi",
    "address": "HP PETROL PUMP - AUTO CARE CENTRE PITAM PURA, Pitampura, Delhi, India",
    "lattitude": 28.6962,
    "longitude": 77.155,
    "type": 12
  },
  {
    "name": "HPCL Yapral DC Charging Station",
    "state": "Telangana",
    "city": "Secunderabad",
    "address": "Hindustan Petroleum Corporation Limited, Jai Jawahar Nagar, Yapral, Secunderabad, Telangana, India",
    "lattitude": 17.502,
    "longitude": 78.539,
    "type": 12
  },
  {
    "name": "HP Super Service DC Charging Station",
    "state": "Maharashtra",
    "city": "Mumbai",
    "address": "157, Jeevan Bima Marg, Backbay Reclamation, Churchgate, Mumbai, Maharashtra 400020, India",
    "lattitude": 18.9285,
    "longitude": 72.8255,
    "type": 12
  },
  {
    "name": "Vrundavan Garden DC Charging Station Nashik",
    "state": "Maharashtra",
    "city": "Dindori",
    "address": "Vrundavan Garden, Nashik Dindori Road,Near Shiv Shakti Bharat Petrol pump,Rantale, Dindori, Maharashtra 422202",
    "lattitude": 20.1704,
    "longitude": 73.8273,
    "type": 12
  },
  {
    "name": "Ganpati Petro DC Charging Station Hisar",
    "state": "Haryana",
    "city": "Sangli",
    "address": "Ganpati Petro, Indian Oil Corporation, Opp. Vidut Nagar, Delhi Road, Industrial Area, Hisar, Haryana 125011",
    "lattitude": 29.1332,
    "longitude": 75.7535,
    "type": 12
  },
  {
    "name": "Ganpati Petro AC Charging Station Hisar",
    "state": "Haryana",
    "city": "Sangli",
    "address": "Ganpati Petro, Indian Oil Corporation, Opp. Vidut Nagar, Delhi Road, Industrial Area, Hisar, Haryana 125011",
    "lattitude": 29.1332,
    "longitude": 75.7535,
    "type": 12
  },
  {
    "name": "Ashnni Pilot Circle Station",
    "state": "Maharashtra",
    "city": "Sangli",
    "address": "Gangaprasad, parshwanath colony, kuthe mala, dhamni road, Sangli, Maharashtra,  416416",
    "lattitude": 16.8433,
    "longitude": 74.5859,
    "type": 12
  },
  {
    "name": "AMC AC Charging Station",
    "state": "Maharashtra",
    "city": "Marunji",
    "address": "Phase 1, Hinjewadi Rajiv Gandhi Infotech Park, Hinjawadi, Pimpri-Chinchwad, Maharashtra 411057",
    "lattitude": 18.5808,
    "longitude": 73.7399,
    "type": 12
  },
  {
    "name": "RSTV Saharanpur AC Charging Station",
    "state": "Uttar Pradesh",
    "city": "Saharanpur",
    "address": "Nanak Puram Colony, Pushpanjali Vihar, Numaish Camp, Saharanpur, Uttar Pradesh 247001",
    "lattitude": 29.977,
    "longitude": 77.5753,
    "type": 12
  },
  {
    "name": "Mindra EV Charger Shott",
    "state": "Gujarat",
    "city": "Shela",
    "address": "Shott, Sindhu Bhavan Marg, Opposite Saket-3, Next to SANKALP SQUARE, PRL Colony, Thaltej, Ahmedabad, Gujarat 380059",
    "lattitude": 23.0436,
    "longitude": 72.4825,
    "type": 12
  },
  {
    "name": "Highway King Behror Delhi Side DC Charging Station",
    "state": "Rajasthan",
    "city": "Gajraula",
    "address": "Highway King Behror, NH 8, 3 Kms from behror towards delhi, Behror, Rajasthan 301701",
    "lattitude": 27.9145,
    "longitude": 76.3146,
    "type": 12
  },
  {
    "name": "Suket Cafe DC Charging Station Sundar Nagar",
    "state": "Himachal Pradesh",
    "city": "Gajraula",
    "address": "Suket Cafe, Pungh, National Highway 21, Sundar Nagar, Himachal Pradesh 175018",
    "lattitude": 31.5153,
    "longitude": 76.8765,
    "type": 12
  },
  {
    "name": "McDonald Gajraula DC Charging Station",
    "state": "Uttar Pradesh",
    "city": "Gajraula",
    "address": "McDonald Gajraula, NH9-24 Salarpur, Dist, Gajraula, Uttar Pradesh 244235",
    "lattitude": 28.8382,
    "longitude": 78.2764,
    "type": 12
  },
  {
    "name": "Rani Bagh Resort DC Charging Station",
    "state": "Rajasthan",
    "city": "Beawar Khas",
    "address": "Rani Bagh Resort, N.H.8, By Pass Ajmer Road, Beawar, Rajasthan 305901",
    "lattitude": 26.125,
    "longitude": 74.3459,
    "type": 12
  },
  {
    "name": "Mke Rental Circle Station",
    "state": "Karnataka",
    "city": "Bengaluru",
    "address": "Mke Rental Private Limited, NH4, Tumkur Road, next to Himalaya Drugs, Makali, Karnataka 560016",
    "lattitude": 13.067,
    "longitude": 77.45,
    "type": 12
  },
  {
    "name": "Waterwoods Lodge & Resort AC Charging Station",
    "state": "Karnataka",
    "city": "Metikuppe",
    "address": "19, Karapura, N.Belthur Post Office, HD Kote Taluk, Nagarhole National Park, Karnataka 571114",
    "lattitude": 11.9377,
    "longitude": 76.2655,
    "type": 12
  },
  {
    "name": "Kohinoor Altissimo Residential Tower",
    "state": "Maharashtra",
    "city": "Mumbai",
    "address": "Kohinoor Altissimo Residential Tower, Kohinoor Altissimo, Kasaravadi, Dadar, Mumbai, Maharashtra 400028",
    "lattitude": 19.0246,
    "longitude": 72.8402,
    "type": 12
  },
  {
    "name": "Hotel Pramila DC Charging Station Haridwar",
    "state": "Uttarakhand",
    "city": "Haridwar",
    "address": "Hotel Pramila, Near Vishwakarma Ghat, NH-58,Delhi Haridwar ByPass, Road, Haridwar, Uttarakhand 249407, Phone No 9310843937",
    "lattitude": 29.9324,
    "longitude": 78.1423,
    "type": 12
  },
  {
    "name": "P G Regency Resort Charging Station",
    "state": "Maharashtra",
    "city": "Mahad",
    "address": "PG Regency,Govind Garden,103/1B, Plot no.4, Mumbai Goa HighWay, Mahad-Raigad, Mahad, Maharashtra 402301 Ph no. 7039892236",
    "lattitude": 18.0855,
    "longitude": 73.4309,
    "type": 12
  },
  {
    "name": "Suket Cafe AC Charging Station Sundar Nagar",
    "state": "Himachal Pradesh",
    "city": "Bengaluru",
    "address": "Suket Cafe, Pungh, National Highway 21, Sundar Nagar, Himachal Pradesh 175018",
    "lattitude": 31.5153,
    "longitude": 76.8765,
    "type": 12
  },
  {
    "name": "The Forum Fiza Mall AC Charging Station Mangalore",
    "state": "Karnataka",
    "city": "Thane",
    "address": "Basement parking (B1), The Forum Fiza Mall, Mangaladevi Temple Road, Pandeshwar, Mangalore - 575001",
    "lattitude": 12.8576,
    "longitude": 74.8383,
    "type": 12
  },
  {
    "name": "MSHSD Gojer Service Charging Station",
    "state": "Karnataka",
    "city": "Bengaluru",
    "address": "Bettadasanapura, Bengaluru, Karnataka 560100",
    "lattitude": 12.8427,
    "longitude": 77.64,
    "type": 12
  },
  {
    "name": "Evershine Mall Charging Station",
    "state": "Maharashtra",
    "city": "Mumbai",
    "address": "Chincholi Bunder Road, New Link Rd, Malad West, Mumbai, Maharashtra 400064",
    "lattitude": 19.1798,
    "longitude": 72.8361,
    "type": 12
  },
  {
    "name": "HP Loyal Pump and Pantry Fuel Charging Station",
    "state": "Telangana",
    "city": "Secunderabad",
    "address": "42-601, SP NAGAR, ECIL Main Rd, SSS Tower, MJ Colony, Moula Ali, Secunderabad, Telangana 500040",
    "lattitude": 17.4677,
    "longitude": 78.5641,
    "type": 12
  },
  {
    "name": "Hotel Reddison Square Katra AC Charging Station",
    "state": "Delhi",
    "city": "New Delhi",
    "address": "Hotel Reddison Square, near shrine board central office, Katra, Jammu and Kashmir 182301, Phone No 9310843937",
    "lattitude": 32.9867,
    "longitude": 74.9238,
    "type": 12
  },
  {
    "name": "Hotel Mount View International AC Charging Station",
    "state": "Delhi",
    "city": "New Delhi",
    "address": "Hount Mount View International, Jammu Rd, Vaishnodevi, Katra, Jammu and Kashmir 182301",
    "lattitude": 32.9918,
    "longitude": 74.9306,
    "type": 12
  },
  {
    "name": "Hotel Dolphin AC Charging Station",
    "state": "Delhi",
    "city": "New Delhi",
    "address": "Hotel Dolphin, Railway Rd, Katra, Jammu and Kashmir 182301",
    "lattitude": 32.9892,
    "longitude": 74.9289,
    "type": 12
  },
  {
    "name": "DMIPL EV Charging Station, Ludhiana",
    "state": "Punjab",
    "city": "Natt",
    "address": "Dalbir Makkar India Pvt. Ltd., Ludhiana-Malerkotla Road, Opp. J K Resort, Rania, Ludhiana - 141122 (Punjab), Phone no 9814215411, 9316916147",
    "lattitude": 30.8219,
    "longitude": 75.8668,
    "type": 12
  },
  {
    "name": "Z Charging Station",
    "state": "Gujarat",
    "city": "Vadodara",
    "address": "Sai Vihar, Abbas Tyabji Rd, Jayesh Colony, Fatehgunj, Vadodara, Gujarat 390002",
    "lattitude": 22.3213,
    "longitude": 73.1881,
    "type": 12
  },
  {
    "name": "VEEV Brookfields",
    "state": "Tamil Nadu",
    "city": "Coimbatore",
    "address": "67-71, Dr Krishnasamy Mudaliyar Rd, Ram Nagar, Coimbatore, Tamil Nadu 641001",
    "lattitude": 11.0096,
    "longitude": 76.9589,
    "type": 12
  },
  {
    "name": "Lake Pleasant Cottage Charging Station",
    "state": "Uttarakhand",
    "city": "Bhimtal",
    "address": "Naukuchiyatal  Bhimtal, Near GD Goenka School 263136 - UK",
    "lattitude": 29.3237,
    "longitude": 79.5921,
    "type": 12
  },
  {
    "name": "Nandavan DC Charging Station Nagoan",
    "state": "Maharashtra",
    "city": "Nagaon",
    "address": "Nandavan, Mahajan Wadi, Near Bhimeshwar Mandir, At Post Nagaon, Taluka Alibag, Dist. Raigarh, Pin 402204, Phone no Kedar Bane, +919923724004, Prashant Mahajan - +919619174428",
    "lattitude": 18.6184,
    "longitude": 72.9004,
    "type": 12
  },
  {
    "name": "Uniworld Garden Charging Station",
    "state": "Haryana",
    "city": "Gurugram",
    "address": "Plot No 1025, 2nd Floor, C block , sector 47, Haryana 122008",
    "lattitude": 28.4273,
    "longitude": 77.0389,
    "type": 12
  },
  {
    "name": "Unnati Social Foundation",
    "state": "Maharashtra",
    "city": "Pimpri-Chinchwad",
    "address": "Unnati Social Foundation Jarvari Society, Opposite PK International School, Pimple Saudagar, Pune",
    "lattitude": 18.5948,
    "longitude": 73.7975,
    "type": 12
  },
  {
    "name": "HP PETROL PUMP - SAI PETROLEUM,MUMBAI",
    "state": "Maharashtra",
    "city": "Bengaluru",
    "address": "Village Katai gao, Kalyan - Shilphata Rd, Dombivli East, Mumbai, Maharashtra 421203",
    "lattitude": 19.1709,
    "longitude": 73.0819,
    "type": 12
  },
  {
    "name": "ShriSamarth DC Charging Station, Beed",
    "state": "Maharashtra",
    "city": "Bengaluru",
    "address": "EV Charging Station, Near Mancott Jining Gevrai Road, NH 61, Phule Pimpalgaon, Maharashtra 431142",
    "lattitude": 19.1779,
    "longitude": 76.168,
    "type": 12
  },
  {
    "name": "CNV Enterprises - HP Petrol Pump",
    "state": "Karnataka",
    "city": "Bengaluru",
    "address": "No 65/20,Nallurahalli Siddapura main road,Nallurahalli main rd., Whitefield, Bengaluru,Karnataka-560066.",
    "lattitude": 12.9653,
    "longitude": 77.7331,
    "type": 12
  },
  {
    "name": "Unity Mall Charging Station Vasai",
    "state": "Maharashtra",
    "city": "Vasai-Virar",
    "address": "Unity Mall, Stella Road, next to Big Bazzar, Bhabola, Vasai West, Maharashtra 401201",
    "lattitude": 19.3593,
    "longitude": 72.8123,
    "type": 12
  },
  {
    "name": "Advant IT Park DC Charging Station Noida",
    "state": "Maharashtra",
    "city": "Greater Noida",
    "address": "Advant IT Park, Plot No. 7, Noida-Greater Noida Expy, Sector 142, Noida, Uttar Pradesh 201305",
    "lattitude": 28.5007,
    "longitude": 77.4102,
    "type": 12
  },
  {
    "name": "Trimurtys Ariana AC Charging Station",
    "state": "Rajasthan",
    "city": "Jaipur",
    "address": "Trimurtys Ariana, Khasara No 211-213, Sector 30, Ramnagaria, Tehsil, Sanganer, JDA Colony, Jagatpura, Jaipur, Rajasthan 302017",
    "lattitude": 26.8312,
    "longitude": 75.8663,
    "type": 12
  },
  {
    "name": "Nandi Park Apartments",
    "state": "Karnataka",
    "city": "Bengaluru",
    "address": "Nandi Park Apartments Gottigere, Bengaluru, Bangalo Karnataka, Indiare, Bangalore, Karnu0101taka",
    "lattitude": 12.8585,
    "longitude": 77.593,
    "type": 12
  },
  {
    "name": "Crowne Plaza Jaipur",
    "state": "Rajasthan",
    "city": "Jaipur",
    "address": "Plot No SP 1, Sitapura Industrial Area, Tonk Road, Jaipur, Rajasthan, 302022",
    "lattitude": 26.7797,
    "longitude": 75.8282,
    "type": 12
  },
  {
    "name": "Pendse Garage AC Charging Station",
    "state": "Maharashtra",
    "city": "Nashik",
    "address": "Pendse Garage, At post diveagar tal Shriwardhan dist raigad 402404 Phone: 9423837934",
    "lattitude": 18.1655,
    "longitude": 72.9929,
    "type": 12
  },
  {
    "name": "Hans Resort DC Charging Station Rewari",
    "state": "Karnataka",
    "city": "Nashik",
    "address": "Hans Resort, 91 Milestone, Delhi-Jaipur Highway, near Kasola Chowk, Rewari, Haryana 123401",
    "lattitude": 28.1254,
    "longitude": 76.6368,
    "type": 12
  },
  {
    "name": "Saviruchi Veg DC Charging Station Mysore",
    "state": "Karnataka",
    "city": "Nashik",
    "address": "Saviruchi Veg, Sri Venkateshwara Arcade, Malavalli, Karnataka 571430",
    "lattitude": 12.3847,
    "longitude": 77.0532,
    "type": 12
  },
  {
    "name": "ElectriVA Test Station",
    "state": "Delhi",
    "city": "New Delhi",
    "address": "3409/1, 3rd Floor, Desh Bandhu Gupta Rd, Karol Bagh, New Delhi-110005",
    "lattitude": 28.6539,
    "longitude": 77.1905,
    "type": 12
  },
  {
    "name": "Sarode Motors Ac EV Charging Station Nashik",
    "state": "Maharashtra",
    "city": "Nashik",
    "address": "Sarode Motors | Joy eBike, Shop No.01, Beside of Hotel Happy Foods, Sarode Motors, nearby Balbharati, Lekha Nagar, Nashik, Maharashtra 422010",
    "lattitude": 19.9758,
    "longitude": 73.776,
    "type": 12
  },
  {
    "name": "The Nile AdPod",
    "state": "Haryana",
    "city": "Gurgaon",
    "address": "The Nile, Sohna, Gurgaon - Delhi Expy, Rosewood City, Ghasola, Sector 49, Gurugram, Haryana 122018",
    "lattitude": 28.4113,
    "longitude": 77.051,
    "type": 12
  },
  {
    "name": "Hotel Daulat Nikol Fast Charging Station",
    "state": "Maharashtra",
    "city": "Nashik",
    "address": "Hotel Daulat Food Mall, Mumbai Agra Highway, Shirwade (Vani) Tal: Niphad, Dist: Nashik",
    "lattitude": 20.2137,
    "longitude": 74.041,
    "type": 12
  },
  {
    "name": "New Udaan Bhawan AdPod 1",
    "state": "Haryana",
    "city": "Gurgaon",
    "address": "Indira Gandhi International Airport",
    "lattitude": 28.553,
    "longitude": 77.0944,
    "type": 12
  },
  {
    "name": "New Udaan Bhawan AdPod 2",
    "state": "Haryana",
    "city": "Gurgaon",
    "address": "Indira Gandhi International Airport",
    "lattitude": 28.5537,
    "longitude": 77.0943,
    "type": 12
  },
  {
    "name": "TDPL EV Charging Station 1",
    "state": "Rajasthan",
    "city": "Jaipur",
    "address": "",
    "lattitude": 26.9159,
    "longitude": 75.723,
    "type": 12
  },
  {
    "name": "Hotel The Executive Inn AC Charging Station",
    "state": "Maharashtra",
    "city": "Shirdi",
    "address": "",
    "lattitude": 19.7592,
    "longitude": 74.4763,
    "type": 12
  },
  {
    "name": "Hotel Bliss County DC Charging Station",
    "state": "Maharashtra",
    "city": "Dhule",
    "address": "",
    "lattitude": 20.8292,
    "longitude": 74.7485,
    "type": 12
  },
  {
    "name": "Savoy Suites Manesar",
    "state": "Haryana",
    "city": "Gurugram",
    "address": "",
    "lattitude": 28.3664,
    "longitude": 76.9436,
    "type": 12
  },
  {
    "name": "MV EV DC Charging Station",
    "state": "Maharashtra",
    "city": "Dahanu",
    "address": "",
    "lattitude": 19.9883,
    "longitude": 72.7488,
    "type": 12
  },
  {
    "name": "Jamoliwala AC Charging Station",
    "state": "Uttarakhand",
    "city": "Dehradun",
    "address": "",
    "lattitude": 78.0654,
    "longitude": 30.3886,
    "type": 12
  },
  {
    "name": "TDPL EV Charging Station 2",
    "state": "Rajasthan",
    "city": "Jaipur",
    "address": "",
    "lattitude": 26.8807,
    "longitude": 75.6143,
    "type": 12
  },
  {
    "name": "Bhajan Singh Da Dhabha DC Charging Station",
    "state": "Maharashtra",
    "city": "Talegaon Dabhade",
    "address": "",
    "lattitude": 18.7005,
    "longitude": 73.6933,
    "type": 12
  },
  {
    "name": "Hotel Prabhat Palace DC Charging Station",
    "state": "Jammu and Kashmir",
    "city": "Katra",
    "address": "",
    "lattitude": 32.9899,
    "longitude": 74.9255,
    "type": 12
  },
  {
    "name": "TSREDCO Test Charging Station",
    "state": "Telangana",
    "city": "HYDERBAD",
    "address": "",
    "lattitude": 17.4123,
    "longitude": 78.4598,
    "type": 12
  },
  {
    "name": "TSREDCO Test Charging Station 1",
    "state": "Telangana",
    "city": "HYDERBAD",
    "address": "",
    "lattitude": 17.4125,
    "longitude": 78.4603,
    "type": 12
  },
  {
    "name": "Mehak Garden Charging Station",
    "state": "Haryana",
    "city": "Sirsa",
    "address": "",
    "lattitude": 29.528,
    "longitude": 75.1325,
    "type": 12
  },
  {
    "name": "Savoy Suites Noida",
    "state": "Uttar Pradesh",
    "city": "Noida",
    "address": "",
    "lattitude": 28.5801,
    "longitude": 77.3152,
    "type": 12
  },
  {
    "name": "Savoy Suites Greater Noida",
    "state": "Uttar Pradesh",
    "city": "Greater Noida",
    "address": "",
    "lattitude": 28.4648,
    "longitude": 77.5084,
    "type": 12
  },
  {
    "name": "Hotel Highway King Shahpura DC Charging Station",
    "state": "Rajasthan",
    "city": "Shahpura",
    "address": "",
    "lattitude": 27.487,
    "longitude": 76.0523,
    "type": 12
  },
  {
    "name": "Aman Hotel Kurukshetra DC Charging Station",
    "state": "Haryana",
    "city": "Shabhad",
    "address": "",
    "lattitude": 30.2059,
    "longitude": 76.8575,
    "type": 12
  },
  {
    "name": "Evershine Tower Jaipur DC Charging Station",
    "state": "Rajasthan",
    "city": "Jaipur",
    "address": "",
    "lattitude": 26.9121,
    "longitude": 75.7433,
    "type": 12
  },
  {
    "name": "Hotel Shree Veg Solapur DC Charging Station",
    "state": "Maharashtra",
    "city": "Bhadalwadi",
    "address": "",
    "lattitude": 18.3289,
    "longitude": 74.7794,
    "type": 12
  },
  {
    "name": "Subway Alwar DC Charging Station",
    "state": "Rajasthan",
    "city": "Alwar",
    "address": "",
    "lattitude": 28.1967,
    "longitude": 76.8128,
    "type": 12
  },
  {
    "name": "Asli Pappu Dhaba Kosi Kalan DC Charging Station",
    "state": "Uttar Pradesh",
    "city": "Kosi Kalan",
    "address": "",
    "lattitude": 27.8327,
    "longitude": 77.4194,
    "type": 12
  },
  {
    "name": "140% Veg Gulshan Dhaba Kotwan DC Charging Station",
    "state": "Uttar Pradesh",
    "city": "Kotwan",
    "address": "",
    "lattitude": 27.8468,
    "longitude": 77.4082,
    "type": 12
  },
  {
    "name": "Synrgy Ebikes Charging Station",
    "state": "Maharashtra",
    "city": "Nashik",
    "address": "",
    "lattitude": 19.9705,
    "longitude": 73.7528,
    "type": 12
  },
  {
    "name": "ChargePit eMobility Charging Station",
    "state": "Maharashtra",
    "city": "Pune",
    "address": "",
    "lattitude": 18.5996,
    "longitude": 73.7809,
    "type": 12
  },
  {
    "name": "MESCOM Shivamogga Charging Station 1",
    "state": "Karnataka",
    "city": "Shivamogga",
    "address": "",
    "lattitude": 13.9419,
    "longitude": 75.5816,
    "type": 12
  },
  {
    "name": "MESCOM Mudigere Charging Station",
    "state": "Karnataka",
    "city": "Karadagodu",
    "address": "",
    "lattitude": 13.1459,
    "longitude": 75.6419,
    "type": 12
  },
  {
    "name": "Karkala Charging Station",
    "state": "Karnataka",
    "city": "Karkala",
    "address": "",
    "lattitude": 13.2244,
    "longitude": 74.9802,
    "type": 12
  },
  {
    "name": "MESCOM Surathkal Charging Station",
    "state": "Karnataka",
    "city": "Surathkal",
    "address": "",
    "lattitude": 12.9875,
    "longitude": 74.8048,
    "type": 12
  },
  {
    "name": "Kaup Charging Station",
    "state": "Karnataka",
    "city": "Kaup",
    "address": "",
    "lattitude": 13.2338,
    "longitude": 74.7471,
    "type": 12
  },
  {
    "name": "Bramavara Charging Station",
    "state": "Karnataka",
    "city": "Bramavara",
    "address": "",
    "lattitude": 13.4381,
    "longitude": 74.7433,
    "type": 12
  },
  {
    "name": "Kundapura Charging Station",
    "state": "Karnataka",
    "city": "Kundapura",
    "address": "",
    "lattitude": 13.6186,
    "longitude": 74.6919,
    "type": 12
  },
  {
    "name": "Manipal Charging Station",
    "state": "Karnataka",
    "city": "Manipal",
    "address": "",
    "lattitude": 13.3334,
    "longitude": 74.7884,
    "type": 12
  },
  {
    "name": "MESCOM Aldur Charging Station",
    "state": "Karnataka",
    "city": "Chikkamagaluru",
    "address": "",
    "lattitude": 13.3319,
    "longitude": 75.7731,
    "type": 12
  },
  {
    "name": "Statiq RnD Centre DC Charging Station",
    "state": "Haryana",
    "city": "Gurgaon",
    "address": "",
    "lattitude": 28.4997,
    "longitude": 77.0839,
    "type": 12
  },
  {
    "name": "Park Plaza Gurgaon DC Charging Station",
    "state": "Haryana",
    "city": "Gurugram",
    "address": "",
    "lattitude": 28.4597,
    "longitude": 77.0758,
    "type": 12
  },
  {
    "name": "PADMASHREE Charging Station",
    "state": "Karnataka",
    "city": "Mudbidri",
    "address": "",
    "lattitude": 13.074,
    "longitude": 75.0025,
    "type": 12
  },
  {
    "name": "Monsoon Breeze AdPod",
    "state": "Haryana",
    "city": "Gurugram",
    "address": "",
    "lattitude": 28.3687,
    "longitude": 76.966,
    "type": 12
  },
  {
    "name": "Decathlon Anubhava",
    "state": "Maharashtra",
    "city": "bengaluru",
    "address": "Survey No 78/10, A2, Bellary Road, Bangalore Airport Road, Chikkajala,",
    "lattitude": 13.169102,
    "longitude": 77.632018,
    "type": 6
  },
  {
    "name": "Forum Shantiniketan",
    "state": "Maharashtra",
    "city": "bengaluru",
    "address": "Whitefield Main Road, Hoodi, Thigalarapalya, Krishnarajapura, Bengaluru, Karnataka",
    "lattitude": 12.9892355,
    "longitude": 77.7279077,
    "type": 6
  },
  {
    "name": "Park Square Mall",
    "state": "Maharashtra",
    "city": "bengaluru",
    "address": "UB1 Parking.40, ITPB Main Road, International Tech Park, Whitefield Main Rd, Pattandur Agrahara, Whitefield, Bengaluru, Karnataka 560066",
    "lattitude": 12.9872999191284,
    "longitude": 77.7363967895508,
    "type": 6
  },
  {
    "name": "GT World Mall",
    "state": "Maharashtra",
    "city": "bengaluru",
    "address": "Magadi Main Rd, next to Prasanna Theatre, Cholourpalya, Bengaluru, Karnataka 560023",
    "lattitude": 12.9739999771118,
    "longitude": 77.551399230957,
    "type": 6
  },
  {
    "name": "Orion Mall",
    "state": "Maharashtra",
    "city": "bengaluru",
    "address": "Dr Rajkumar Road, Rajajinagar,",
    "lattitude": 13.011065,
    "longitude": 77.554534,
    "type": 6
  },
  {
    "name": "Phoenix Market City",
    "state": "Maharashtra",
    "city": "pune",
    "address": "S No 207, Viman Nagar Road, Phoenix Road, Viman Nagar, Pune, Maharashtra",
    "lattitude": 18.5619189099244,
    "longitude": 73.9166807269854,
    "type": 6
  },
  {
    "name": "Phoenix Market City",
    "state": "Odisha",
    "city": "bengaluru",
    "address": "Whitefield Main Road, Mahadevpura, Bengaluru, Karnataka 560048",
    "lattitude": 12.9970998764038,
    "longitude": 77.6962966918945,
    "type": 6
  },
  {
    "name": "Patel's Inn",
    "state": "Odisha",
    "city": "bengaluru",
    "address": "No 1, 15th Cross, 2nd Block, Govindaraj Garden, R.T Nagar,",
    "lattitude": 13.0209071,
    "longitude": 77.5979841,
    "type": 6
  },
  {
    "name": "Coco Jaunt 1728 - Anna Nagar",
    "state": "Pondicherry",
    "city": "chennai",
    "address": "t-2, 4th Main Rd, Anna Nagar West, Anna Nagar, Chennai, Tamil Nadu 600040",
    "lattitude": 13.0902004241943,
    "longitude": 80.2174987792969,
    "type": 6
  },
  {
    "name": "Infinitea",
    "state": "Punjab",
    "city": "bengaluru",
    "address": "6,ESI Hospital Road HAL 2nd Stage, 100 feet road, Indiranagar, Doopanahalli, Bengaluru, Karnataka",
    "lattitude": 12.9689998626709,
    "longitude": 77.6361999511719,
    "type": 6
  },
  {
    "name": "The Only Place",
    "state": "Punjab",
    "city": "bengaluru",
    "address": "Siddam Setty Complex, Museum Rd, Next To, Shanthala Nagar, Ashok Nagar, Bengaluru, Karnataka 560001",
    "lattitude": 12.9730997085571,
    "longitude": 77.6033020019531,
    "type": 6
  },
  {
    "name": "Fab Cafe",
    "state": "Rajasthan",
    "city": "bengaluru",
    "address": "915, Kenchena Halli Rd, Remco Bhel Layout, Kenchenhalli, RR Nagar,560098",
    "lattitude": 12.934100151062,
    "longitude": 77.5171966552734,
    "type": 6
  },
  {
    "name": "The Moonshine Project restaurant Jubilee Hills",
    "state": "Rajasthan",
    "city": "hyderabad",
    "address": "385, Road Number 82, Film Nagar, Jubilee Hills,",
    "lattitude": 17.4141998291016,
    "longitude": 78.4076995849609,
    "type": 6
  },
  {
    "name": "Almond House Banjara Hills",
    "state": "TamilNadu",
    "city": "hyderabad",
    "address": "8-2-350/3/1, Next to Meena Bazar, Rd Number 3, Panchavati Society Colony, AK Enclave, Green Valley, Banjara Hills, Hyderabad, Telangana",
    "lattitude": 17.4270191,
    "longitude": 78.4434192,
    "type": 6
  },
  {
    "name": "Go Native",
    "state": "TamilNadu",
    "city": "bengaluru",
    "address": "#64, 10th Main Rd, 4th Block, 5th Block, Jayanagar, Bengaluru, Karnataka 560041",
    "lattitude": 12.922504,
    "longitude": 77.58476,
    "type": 6
  },
  {
    "name": "TORQ92",
    "state": "TamilNadu",
    "city": "bengaluru",
    "address": "15, 5th Cross Road, Shantivana, Next to Sterling Park Apts, Kodigehalli Main Road, Sahakara Nagar, Bengaluru",
    "lattitude": 13.057629,
    "longitude": 77.5871507,
    "type": 6
  },
  {
    "name": "AtherSpace Indiranagar",
    "state": "TamilNadu",
    "city": "bengaluru",
    "address": "53, - 3rd main, 100th Feet Road, Defence Colony, Indira Nagar",
    "lattitude": 12.9756002426147,
    "longitude": 77.6411972045898,
    "type": 6
  },
  {
    "name": "Royal Airavatha",
    "state": "Telangana",
    "city": "bengaluru",
    "address": "#749/1, Near R V Engineering College",
    "lattitude": 12.9223003387451,
    "longitude": 77.4954986572266,
    "type": 6
  },
  {
    "name": "Kriyates - Thoraipakkam",
    "state": "Telangana",
    "city": "chennai",
    "address": "No.361,Omr Escapade, Mada Koil Street, Okkiam, Thoraipakkam, Vivekananda Nagar, Thoraipakkam, Chennai, Tamil Nadu 600097",
    "lattitude": 12.924971,
    "longitude": 80.233677,
    "type": 6
  },
  {
    "name": "Phoenix Market City - Velachery",
    "state": "Telangana",
    "city": "chennai",
    "address": "142, Velachery Rd Indira Gandhi Nagar, Velachery Chennai, Tamil Nadu 600042",
    "lattitude": 12.9914084,
    "longitude": 80.2143054,
    "type": 6
  },
  {
    "name": "Forum Vijaya Mall - Vadapalani",
    "state": "Telangana",
    "city": "chennai",
    "address": "B1 Basement, No. 183, Arcot Road, NSK Salai, Vadapalani, Chennai, Tamil Nadu 600026",
    "lattitude": 13.049952,
    "longitude": 80.209499,
    "type": 6
  },
  {
    "name": "Ampa Skywalk",
    "state": "Telangana",
    "city": "chennai",
    "address": "No:1, Nelson Manickam Road, 627, Poonamalee High Road, Aminjikara",
    "lattitude": 13.0734394,
    "longitude": 80.2214957,
    "type": 6
  },
  {
    "name": "AtWorks - Guindy",
    "state": "Uttarakhand",
    "city": "chennai",
    "address": "39, North Parade Road, Chakrapani Colony, St Thomas Mount, Chennai, Tamil Nadu",
    "lattitude": 13.0060668,
    "longitude": 80.1999835,
    "type": 6
  },
  {
    "name": "Cafe Azzure",
    "state": "Uttrakhand",
    "city": "bengaluru",
    "address": "No 315, CMR Road, 3rd Block, HRBR Layout, Kalyan Nagar,",
    "lattitude": 13.023563,
    "longitude": 77.635275,
    "type": 6
  },
  {
    "name": "Almond House Kukatpally",
    "state": "WestBengal",
    "city": "hyderabad",
    "address": "490, JNTU - Hitech City Road, K P H B Phase 3, Kukatpally, Hyderabad, Telangana",
    "lattitude": 17.485859,
    "longitude": 78.39042,
    "type": 6
  },
  {
    "name": "Sarath City Capital Mall",
    "state": "Harayana",
    "city": "hyderabad",
    "address": "Capital Mall, GF-070 & 071, Sarath City, Gachibowli - Miyapur Rd, Forest Dept Colony, Kondapur, Hyderabad, Telangana",
    "lattitude": 17.456842,
    "longitude": 78.364575,
    "type": 6
  },
  {
    "name": "Atherspace Chennai",
    "state": "Chandigarh",
    "city": "chennai",
    "address": "No.153, Wallace Garden 2nd St, Thousand Lights West, Nungambakkam, Chennai, Tamil Nadu 600006",
    "lattitude": 13.060965,
    "longitude": 80.248509,
    "type": 6
  },
  {
    "name": "Athergrid CP",
    "state": "Haryana",
    "city": "delhi",
    "address": "A 221 road no 6, D Block, Connaught Place, New Delhi, 110037",
    "lattitude": 28.633714,
    "longitude": 77.221904,
    "type": 6
  },
  {
    "name": "The Bangalore Bakery",
    "state": "Maharashtra",
    "city": "bengaluru",
    "address": "No 30, Ground Floor, 1st Cross Road, Malleshwaram,",
    "lattitude": 12.9941754,
    "longitude": 77.57121,
    "type": 6
  },
  {
    "name": "Almond House SD Road",
    "state": "Delhi",
    "city": "hyderabad",
    "address": "9-1-109/1B, Regimental Bazaar, Shivaji Nagar,",
    "lattitude": 17.441011,
    "longitude": 78.503158,
    "type": 6
  },
  {
    "name": "Chai Kahani - Sainikpuri",
    "state": "Hyderabadu00a0",
    "city": "hyderabad",
    "address": "colony, 1st Cross Vayupuri, Verka Residency, Vayupuri, Sainikpuri",
    "lattitude": 17.486819,
    "longitude": 78.5431269,
    "type": 6
  },
  {
    "name": "Swiss Castle, Vidyanagar",
    "state": "Punjab",
    "city": "hyderabad",
    "address": "2-1-565/F/4, Nallakunta Main Rd, Vidya Nagar, Adikmet, Hyderabad",
    "lattitude": 17.400595,
    "longitude": 78.508078,
    "type": 6
  },
  {
    "name": "Bliss Bakery & Cafe",
    "state": "Delhi",
    "city": "pune",
    "address": "Narayan Tower, near, Narayan Annaji Shinde Rd, Salunkhe Vihar Society, Kondhwa, Pune, Maharashtra",
    "lattitude": 18.4788385,
    "longitude": 73.9013856,
    "type": 6
  },
  {
    "name": "Flip Side",
    "state": "Delhi",
    "city": "hyderabad",
    "address": "ISB Rd, Financial District, Nanakramguda, Hyderabad, Telangana",
    "lattitude": 17.4139784,
    "longitude": 78.3275492,
    "type": 6
  },
  {
    "name": "Taj Mahal Hotel",
    "state": "TamilNadu",
    "city": "hyderabad",
    "address": "5-9-502, Gun Foundry Street Number 1, Gun Foundry, Abids",
    "lattitude": 17.3916834,
    "longitude": 78.4766724,
    "type": 6
  },
  {
    "name": "Sai Menaka Commercial Complex",
    "state": "TamilNadu",
    "city": "bengaluru",
    "address": "1599/01, BB Main Road, Nehru Nagar, Next to Old Postoffice, Old Town, Yelahanka",
    "lattitude": 13.098157,
    "longitude": 77.59673,
    "type": 6
  },
  {
    "name": "IDC Kitchen",
    "state": "Gujarat",
    "city": "bengaluru",
    "address": "No 67, 80 Feet Road, KGEHBS Layout, Devasandra, RMV 2nd Stage, Armane Nagar,",
    "lattitude": 13.028052,
    "longitude": 77.572997,
    "type": 6
  },
  {
    "name": "Kalinga Veg Gourmet Kitchen",
    "state": "Kerala",
    "city": "pune",
    "address": "1st - 3rd Floor, House of Nosh, CTS 1365, Gulawani Maharaj Road, Swaroop Society, Vakil Nagar, Erandwane, Pune, Maharashtra",
    "lattitude": 18.5050103,
    "longitude": 73.8316238,
    "type": 6
  },
  {
    "name": "CopaCabana",
    "state": "Maharashtra",
    "city": "pune",
    "address": "Near, Aundh-Wakad Road, Jagtap Dairy Rd, Vishal Nagar, Pune, Maharashtra 411027",
    "lattitude": 18.5887678,
    "longitude": 73.7825231,
    "type": 6
  },
  {
    "name": "TamTree",
    "state": "AndhraPradesh",
    "city": "pune",
    "address": "Shop No.5, Pragati Bhavan, Behind Natural Ice Cream shop, Ghole Rd, near Bal Gandharva Chowk, Shivajinagar, Pune, Maharashtra",
    "lattitude": 18.5231567,
    "longitude": 73.8476929,
    "type": 6
  },
  {
    "name": "KB's Woodlands",
    "state": "TamiNadu",
    "city": "pune",
    "address": "B J Road Railway Station, Sadhu Vaswani Rd, near Pune, Maharashtra,Sadhu Vaswani Chowk",
    "lattitude": 18.525182,
    "longitude": 73.8758609,
    "type": 6
  },
  {
    "name": "Sangeetha Mobiles, Chandra Layout",
    "state": "TamilNadu",
    "city": "bengaluru",
    "address": "Shop #89/A, G Floor, 9th Cross Rd, Chandra Layout",
    "lattitude": 12.9607,
    "longitude": 77.529186,
    "type": 6
  },
  {
    "name": "SPR CHENNAI FOOD COURT",
    "state": "Karnataka",
    "city": "chennai",
    "address": "OLD NO: 76 , NEW NO: 112, VANAGARAM, Poonamallee High Rd, Chennai, Tamil Nadu 600095",
    "lattitude": 13.0610823,
    "longitude": 80.1519339,
    "type": 6
  },
  {
    "name": "VMR Squares",
    "state": "Goa",
    "city": "chennai",
    "address": "No. 5 & 6 Next to Tollgate, 200 Feet Radial Rd, Oggiyamduraipakkam, Tamil Nadu",
    "lattitude": 12.9500859,
    "longitude": 80.2365626,
    "type": 6
  },
  {
    "name": "Chai Kings, Porur",
    "state": "Gujarat",
    "city": "chennai",
    "address": "No - 1/128 Ground Floor, Truck Road Iyyappanthangal, Porur",
    "lattitude": 13.0370409,
    "longitude": 80.1398795,
    "type": 6
  },
  {
    "name": "Ather Space Hyderabad",
    "state": "Jharkhand",
    "city": "hyderabad",
    "address": "Plot no. 1 & 2, Survey No - 64P, Rohini Layout Opp Shilparamam, Hitech City, Madhapur",
    "lattitude": 17.452666,
    "longitude": 78.380343,
    "type": 6
  },
  {
    "name": "M's Street",
    "state": "Delhi",
    "city": "chennai",
    "address": "N0, 396/1, Mambakkam - Medavakkam Main Rd, Munusamy Nagar, Vimala Nagar, Medavakkam",
    "lattitude": 12.9149592,
    "longitude": 80.1920666,
    "type": 6
  },
  {
    "name": "Noma Talkies",
    "state": "Kerala",
    "city": "hyderabad",
    "address": "3-4-99, Nacharam - Mallapur Rd, May Flower Hights, Vivekananda Nagar, Mallapur, Secunderabad, Telangana",
    "lattitude": 17.447469,
    "longitude": 78.57175,
    "type": 6
  },
  {
    "name": "Regenta Central Antarim",
    "state": "WestBengal",
    "city": "ahmedabad",
    "address": "Between Girish Coldrink and Xaviers Corner, Chimanlal Girdharlal Rd, Navrangpura, Ahmedabad, Gujarat",
    "lattitude": 23.0331669,
    "longitude": 72.5568133,
    "type": 6
  },
  {
    "name": "French toast, Panampilly Nagar",
    "state": "WestBengal",
    "city": "kochi",
    "address": "8th Cross, Street B, Ambikapuram Rd, Panampilly Nagar, Ernakulam, Kerala",
    "lattitude": 9.960854,
    "longitude": 76.2939207,
    "type": 6
  },
  {
    "name": "French Toast, Kacheripady",
    "state": "Bihar",
    "city": "kochi",
    "address": "Chittoor Rd, near Westend Eye Hospital, Kacheripady, Kochi, Kerala",
    "lattitude": 9.9878416,
    "longitude": 76.2827333,
    "type": 6
  },
  {
    "name": "Centre square mall",
    "state": "Tamil Nadu",
    "city": "kochi",
    "address": "40/6972, Mahatma Gandhi Rd, Rajaji Junction, Kochi, Kerala",
    "lattitude": 9.9779338,
    "longitude": 76.2808706,
    "type": 6
  },
  {
    "name": "The Food Drama",
    "state": "Tamil Nadu",
    "city": "ahmedabad",
    "address": "Besides Geetanjali Party Plot, near sterling cancer hospital Sindhu bhawan road Bodakdev, Ahmedabad, Bodakdev, West, Thaltej, Ahmedabad, Gujarat",
    "lattitude": 23.044056,
    "longitude": 72.5099616,
    "type": 6
  },
  {
    "name": "Tea Post - The Desi Cafe",
    "state": "Tamil Nadu",
    "city": "ahmedabad",
    "address": "Nr. Taj Lane Hotel, Sankalp Square Lane Nr. S. P. Ring Road, Sindhu Bhavan Marg, Road, Ahmedabad, Gujarat",
    "lattitude": 23.04574,
    "longitude": 72.483755,
    "type": 6
  },
  {
    "name": "Smarttron Automations",
    "state": "Tamil Nadu",
    "city": "bengaluru",
    "address": "4th Floor, 1031, 24th Main Rd, 1st Sector, HSR Layout, Bengaluru",
    "lattitude": 12.917819,
    "longitude": 77.64921,
    "type": 6
  },
  {
    "name": "Blue Tokai Coffee",
    "state": "Tamil Nadu",
    "city": "mumbai",
    "address": "Unit 20-22, Laxmi Woollen Mill, Opposite Blue Loft, Dr E Moses Marg, Off, Shakti Mills Ln, Mahalakshmi, Mumbai",
    "lattitude": 18.989356,
    "longitude": 72.825234,
    "type": 6
  },
  {
    "name": "VR Chennai",
    "state": "Tamil Nadu",
    "city": "chennai",
    "address": "Jawaharlal Nehru Rd, Thirumangalam, Anna Nagar, Chennai, Tamil Nadu",
    "lattitude": 13.0805465,
    "longitude": 80.197132,
    "type": 6
  },
  {
    "name": "DSL Virtue Mall",
    "state": "Karnataka",
    "city": "hyderabad",
    "address": "Near Rajiv Gandhi International Cricket Stadium, Survey Colony, Industrial Development Area, Uppal, Hyderabad, Telangana",
    "lattitude": 17.3998101,
    "longitude": 78.5551167,
    "type": 6
  },
  {
    "name": "Jogo Infinite",
    "state": "Karnataka",
    "city": "kochi",
    "address": "Louis Line, 3869a, Pandit Karuppan Rd, Perumanoor",
    "lattitude": 9.9447031,
    "longitude": 76.2925099,
    "type": 6
  },
  {
    "name": "Sixth Avenue Cafe",
    "state": "Karnataka",
    "city": "calicut",
    "address": "Ground Floor Baby Arcade, PT Usha Rd, near GatewayHotel, Kozhikode, Kerala",
    "lattitude": 11.2582475,
    "longitude": 75.7747771,
    "type": 6
  },
  {
    "name": "Dr. Cafe",
    "state": "Tamil Nadu",
    "city": "calicut",
    "address": "Kozhikode - Mavoor - Areacode Rd, Near Hindustan Petroleum, Velliparamba, Kozhikode, Kerala",
    "lattitude": 11.2698057,
    "longitude": 75.8436455,
    "type": 6
  },
  {
    "name": "Cafe Kathaa",
    "state": "Tamil Nadu",
    "city": "pune",
    "address": "Unnamed Road, Fergusson college campus Rd, Shivajinagar, Pune, Maharashtra 411004",
    "lattitude": 18.5207781331765,
    "longitude": 73.8405353264273,
    "type": 6
  },
  {
    "name": "Kumaran Silks, T Nagar",
    "state": "Rajasthan",
    "city": "chennai",
    "address": "12, Nageswaran Road, Parthasarathi Puram, T. Nagar",
    "lattitude": 13.0406526,
    "longitude": 80.232646,
    "type": 6
  },
  {
    "name": "Subway Aundh",
    "state": "Bihar",
    "city": "pune",
    "address": "1 Samar Paradise, DP Rd, Aundh, Pune, Maharashtra 411007",
    "lattitude": 18.5604818759678,
    "longitude": 73.8050409881093,
    "type": 6
  },
  {
    "name": "Chai Kings, Sai baba colony",
    "state": "Karnataka",
    "city": "coimbatore",
    "address": "No. 546 and 567, NSR Rd, Saibaba Colony, Tamil Nadu",
    "lattitude": 11.0268889,
    "longitude": 76.9485693,
    "type": 6
  },
  {
    "name": "Adani Shantigram",
    "state": "Tamil Nadu",
    "city": "ahmedabad",
    "address": "Adani Shantigram, Gujarat 382421",
    "lattitude": 23.1606011,
    "longitude": 72.5427391,
    "type": 6
  },
  {
    "name": "Mugs And Brews - Cafu00e9 Restaurant",
    "state": "Tamil Nadu",
    "city": "coimbatore",
    "address": "23A Thudiyalur Road Sivasakthi Nagar, Saravanampatti",
    "lattitude": 11.0809942,
    "longitude": 76.9911489,
    "type": 6
  },
  {
    "name": "1944 The Hocco Kitchen, Vaishnodevi",
    "state": "Uttar Pradesh",
    "city": "ahmedabad",
    "address": "Vaishnodevi Cir, Ahmedabad, Gujarat",
    "lattitude": 23.1347369,
    "longitude": 72.541765,
    "type": 6
  },
  {
    "name": "Benjamin Bangalee",
    "state": "Maharashtra",
    "city": "kolkata",
    "address": "P/122, James Long Sarani, Majhipara, Kolkata, West Bengal",
    "lattitude": 22.4668437,
    "longitude": 88.3111551,
    "type": 6
  },
  {
    "name": "Richy Rich - Race course",
    "state": "Tamil Nadu",
    "city": "coimbatore",
    "address": "Race Course Rd, Near Park, Race Course, Coimbatore, Tamil Nadu",
    "lattitude": 10.9984009,
    "longitude": 76.9765316,
    "type": 6
  },
  {
    "name": "Suba International",
    "state": "West Bengal",
    "city": "mumbai",
    "address": "Plot No. 211, Chakala, Sahar Rd, Opposite Cigarette Factory, Andheri East, Mumbai, Maharashtra",
    "lattitude": 19.106207,
    "longitude": 72.860261,
    "type": 6
  },
  {
    "name": "MCGM Parking || Runwal Anthurium",
    "state": "West Bengal",
    "city": "mumbai",
    "address": "Runwal Anthurium Rd, opposite Veena Nagar, Vardhman Nagar, Mulund West",
    "lattitude": 19.1806661685396,
    "longitude": 72.9468472363647,
    "type": 6
  },
  {
    "name": "DLF Chennai",
    "state": "West Bengal",
    "city": "chennai",
    "address": "Mount Poonamallee Rd, Manapakkam",
    "lattitude": 13.0223,
    "longitude": 80.1749,
    "type": 6
  },
  {
    "name": "Kabra Metro One",
    "state": "West Bengal",
    "city": "mumbai",
    "address": "14, JP Rd, Aram Nagar, Seven Bunglow, Andheri West",
    "lattitude": 19.1303012111998,
    "longitude": 72.8222972342668,
    "type": 6
  },
  {
    "name": "Lumber Jack",
    "state": "Haryana",
    "city": "pune",
    "address": "TechKaTech Innovation Hub, Karve road, Opp to Vandevi Temple, above Hotel Marathi Bana, Mavale Basti, Hingne Budrukh, Karve Nagar, Pune, Maharashtra ,Karve Nagar",
    "lattitude": 18.4931152837874,
    "longitude": 73.8154865931648,
    "type": 6
  },
  {
    "name": "AtherSpace Pune",
    "state": "Haryana",
    "city": "pune",
    "address": "805, Bhandarkar Rd, Below Kung Apartments, Deccan Gymkhana, Pune, Maharashtra",
    "lattitude": 18.5186726,
    "longitude": 73.8302965,
    "type": 6
  },
  {
    "name": "OMAXE Gurgaon Mall",
    "state": "Rajasthan",
    "city": "gurugram",
    "address": "71, Shanti St, Block S, Uppal Southend, Sector 49, Gurugram, Haryana",
    "lattitude": 28.4109579,
    "longitude": 77.042484,
    "type": 6
  },
  {
    "name": "MCGM Parking || Club Aquaria",
    "state": "Uttar Pradesh",
    "city": "mumbai",
    "address": "Devidas Lane, Shanti Ashram Borivali West, Near St.Lawrence High School, Mumbai, Maharashtra ,Borivali",
    "lattitude": 19.2402364,
    "longitude": 72.8481819,
    "type": 6
  },
  {
    "name": "Focus Mall",
    "state": "Maharashtra",
    "city": "calicut",
    "address": "Rajaji Road, Calicut-  Kerala, India",
    "lattitude": 11.2586377,
    "longitude": 75.7857046,
    "type": 6
  },
  {
    "name": "GM Cycle Parking Stand (Opp to sevai maiyyam)",
    "state": "Rajasthan",
    "city": "chennai",
    "address": "No 43/G, Station Road, Thirumalairajapuram, Avadi, Chennai, Tamil Nadu",
    "lattitude": 13.117155,
    "longitude": 80.09997,
    "type": 6
  },
  {
    "name": "Grand Mall, Kochi",
    "state": "Maharashtra",
    "city": "kochi",
    "address": "Panvel - Kochi - Kanyakumari Hwy, Toll Junction, Edappally, Kochi, Kerala",
    "lattitude": 10.0244123,
    "longitude": 76.3089558,
    "type": 6
  },
  {
    "name": "Hotel House Inn",
    "state": "Maharashtra",
    "city": "noida",
    "address": "BS-100, Basai, Sector 70, Noida, Uttar Pradesh",
    "lattitude": 28.5952291,
    "longitude": 77.3822213,
    "type": 6
  },
  {
    "name": "Kotak Mahindra Bank",
    "state": "Jammu",
    "city": "indore",
    "address": "580, Mahatma Gandhi Rd, near Indraprastha Tower, Infront of, Race Course Road, Indore, Madhya Pradesh",
    "lattitude": 22.7229189,
    "longitude": 75.8793613,
    "type": 6
  },
  {
    "name": "Dosa Magic",
    "state": "Maharashtra",
    "city": "indore",
    "address": "147 B, Moon Palace Colony, Near Annapurna Police Station, Annapurna Road, Indore",
    "lattitude": 22.6959754,
    "longitude": 75.8422103,
    "type": 6
  },
  {
    "name": "The blue roof Cafe",
    "state": "Telangana",
    "city": "indore",
    "address": "236, Bhawarkua Main Rd, near Anand Super 100, Indrapuri Colony, Bhanwar Kuwa, Indore, Madhya Pradesh",
    "lattitude": 22.689781,
    "longitude": 75.866902,
    "type": 6
  },
  {
    "name": "Oyo Townhouse 118",
    "state": "Delhi",
    "city": "delhi",
    "address": "20, Gagan Vihar, Krishna Nagar",
    "lattitude": 28.646011,
    "longitude": 77.296796,
    "type": 6
  },
  {
    "name": "Oyo Townhouse 381",
    "state": "Delhi",
    "city": "delhi",
    "address": "D/59, New Seemapuri Rd, Pocket E, Dilshad Colony New Simapuri, Dilshad Garden",
    "lattitude": 28.68902,
    "longitude": 77.323102,
    "type": 6
  },
  {
    "name": "Nukkad Tea Cafe",
    "state": "Andhra Pradesh",
    "city": "raipur",
    "address": "75, Jalvihar Colony Rd, Civil Lines, Raipur, Chhattisgarh",
    "lattitude": 21.2404762,
    "longitude": 81.6574975,
    "type": 6
  },
  {
    "name": "Aaranyam Restaurant & Cafe",
    "state": "Chhattisgarh",
    "city": "raipur",
    "address": "near Vedanta Balco Medical Center, Sector 24, Nawagaon Parsatti, Naya Raipur, Chhattisgarh",
    "lattitude": 21.134229,
    "longitude": 81.7723096,
    "type": 6
  },
  {
    "name": "Ather Space Ahmedabad",
    "state": "Delhi",
    "city": "ahmedabad",
    "address": "Shop No. 01, Ground floor, 3rd Eye Vision Opp. Shivalik Plaza, near AMA, Panjrapole CharRasta, Ahmedabad, Gujarat",
    "lattitude": 23.0281973,
    "longitude": 72.5432892,
    "type": 6
  },
  {
    "name": "Cake Bee, Cantonment",
    "state": "Madhya Pradesh",
    "city": "tiruchirappalli",
    "address": "3/A, Bharathidasan Salai, near Campion School, Cantonment, Tamil Nadu, Trichy",
    "lattitude": 10.8024024,
    "longitude": 78.6824181,
    "type": 6
  },
  {
    "name": "Cake Bee, Singaram Nagar",
    "state": "Kerala",
    "city": "tiruchirappalli",
    "address": "Ground Floor, No.7, Singaram Nagar, Kattur, Trichy Tamil Nadu, Trichy",
    "lattitude": 10.7967137,
    "longitude": 78.7563467,
    "type": 6
  },
  {
    "name": "Aspire - Step Inn Sector 27",
    "state": "Maharashtra",
    "city": "gurugram",
    "address": "opposite Jan Pratinidhi Apartments, Sector 27, Gurugram, Haryana 122009",
    "lattitude": 28.4672823,
    "longitude": 77.0927632,
    "type": 6
  },
  {
    "name": "Veg Aroma",
    "state": "Maharashtra",
    "city": "nashik",
    "address": "Gangapur Rd, Kale Nagar, Viveka Nand Nagar, Anandvalli, Nashik, Maharashtra ,Gangapur Road",
    "lattitude": 20.0120574,
    "longitude": 73.7461884,
    "type": 6
  },
  {
    "name": "The Cobble Street",
    "state": "Maharashtra",
    "city": "nashik",
    "address": "Gangapur-Savargaon Rd, Nashik, Maharashtra",
    "lattitude": 20.0144062,
    "longitude": 73.6983448,
    "type": 6
  },
  {
    "name": "Brown Bites II",
    "state": "Maharashtra",
    "city": "jaipur",
    "address": "B-42, Sarthi Marg, Bhan Nagar, Jaipur, Rajasthan",
    "lattitude": 26.901567,
    "longitude": 75.751926,
    "type": 6
  },
  {
    "name": "Lodha Florenza",
    "state": "Maharashtra",
    "city": "mumbai",
    "address": "On Western Express Highway, adjacent to Hub Mall, Cama Industrial Estate, Goregaon, Mumbai, Maharashtra ,Goregaon",
    "lattitude": 19.1538114182866,
    "longitude": 72.8557957193731,
    "type": 6
  },
  {
    "name": "Ather Space, Coimbatore",
    "state": "Maharashtra",
    "city": "coimbatore",
    "address": "357, Patel Rd, Ram Nagar, Coimbatore, Tamil Nadu",
    "lattitude": 11.0113482,
    "longitude": 76.9598159,
    "type": 6
  },
  {
    "name": "K Star Chembur",
    "state": "Maharashtra",
    "city": "mumbai",
    "address": "VN Purav Marg Diamond Garden, Basant Garden, Chembur Mumbai, Maharashtra,Chembur",
    "lattitude": 19.052316305376,
    "longitude": 72.9016358109368,
    "type": 6
  },
  {
    "name": "IIT Madras (ICSR)",
    "state": "Chandigarh",
    "city": "chennai",
    "address": "Near Gajendra Circle, Opposite to Admin Building, Indian Institute Of Technology, Adyar, Chennai, Tamil Nadu",
    "lattitude": 12.9917014,
    "longitude": 80.232102,
    "type": 6
  },
  {
    "name": "Ather Space, Kochi",
    "state": "Delhi",
    "city": "kochi",
    "address": "Ponnurunni-Chalikkavattom Rd, Ponnurunni East, Ponnurunni, Vyttila, Ernakulam, Kerala",
    "lattitude": 9.98014,
    "longitude": 76.3173646,
    "type": 6
  },
  {
    "name": "Treehouse Queens Pearl",
    "state": "Maharashtra",
    "city": "gurugram",
    "address": "SH 15A, Shanti Nagar, Shivaji Nagar, Sector 11, Gurugram, Haryana ,Gurgaon",
    "lattitude": 28.4493495,
    "longitude": 77.0315967,
    "type": 6
  },
  {
    "name": "Kala Ghoda Cafe",
    "state": "Maharashtra",
    "city": "mumbai",
    "address": "10, Rope Walk Ln, Kala Ghoda, Fort, Mumbai, Maharashtra",
    "lattitude": 18.9284545096609,
    "longitude": 72.8320303138997,
    "type": 6
  },
  {
    "name": "UB City",
    "state": "Maharashtra",
    "city": "bengaluru",
    "address": "No 24, Vittal Mallya Road, KG Halli, D' Souza Layout, Ashok Nagar,",
    "lattitude": 12.971406,
    "longitude": 77.595799,
    "type": 6
  },
  {
    "name": "Trichi Kaveri Foods Private Limited",
    "state": "Kerala",
    "city": "tiruchirappalli",
    "address": "19, Main road, Annamalai Nagar",
    "lattitude": 10.8330993,
    "longitude": 78.6845337,
    "type": 6
  },
  {
    "name": "Signature Mall",
    "state": "Tamil Nadu",
    "city": "ghaziabad",
    "address": "Shop No. 2. Ground Floor Signature Street, G-Block, Govindpuram, Ghaziabad, Uttar Pradesh",
    "lattitude": 28.6910142131536,
    "longitude": 77.486384992674,
    "type": 6
  },
  {
    "name": "Hotel Noida International",
    "state": "Maharashtra",
    "city": "noida",
    "address": "Nagar Complex Noida Road Opposite Mercedes Showroom, Sector 11, Noida, Uttar Pradesh ,Noida",
    "lattitude": 28.5967575,
    "longitude": 77.3282689,
    "type": 6
  },
  {
    "name": "Carnival Cinemas Imax",
    "state": "Telangana",
    "city": "mumbai",
    "address": "Carnival Cinemas Imax, Anik Wadala Link Rd, Bhakti Park, Wadala, Mumbai, Maharashtra ,Worli",
    "lattitude": 19.0313299,
    "longitude": 72.8809653,
    "type": 6
  },
  {
    "name": "Hotel Parktel",
    "state": "Andhra Pradesh",
    "city": "ghaziabad",
    "address": "Omaxe Plaza, 583, Vijay Laxmi Pandit Marg, Near, Shakti Khand 2, Indirapuram, Ghaziabad, Uttar Pradesh",
    "lattitude": 28.6463665,
    "longitude": 77.36784004418,
    "type": 6
  },
  {
    "name": "Ardas Televentures Pvt Ltd",
    "state": "Andhra Pradesh",
    "city": "jaipur",
    "address": "#147, Rathore Nagar, Amrapali Road, Vaishali Nagar",
    "lattitude": 26.911545,
    "longitude": 75.74876,
    "type": 6
  },
  {
    "name": "Cue Campus",
    "state": "Madhya Pradesh",
    "city": "hubli",
    "address": "B 4 chetan complex opp kims main gate Vidhyagar, PB Rd, Vidya Nagar",
    "lattitude": 15.360651,
    "longitude": 75.126774,
    "type": 6
  },
  {
    "name": "Sony Center Bellad and Company",
    "state": "West Bengal",
    "city": "hubli",
    "address": "Sony Center, Lamington Rd, Deshpande Nagar, Hubli",
    "lattitude": 15.351334,
    "longitude": 75.141651,
    "type": 6
  },
  {
    "name": "Bellad Towers",
    "state": "Maharashtra",
    "city": "hubli",
    "address": "Ground Floor Bannigida Stop, Gokul Rd",
    "lattitude": 15.351171,
    "longitude": 75.126191,
    "type": 6
  },
  {
    "name": "Uma complex",
    "state": "Kerala",
    "city": "chennai",
    "address": "No 14, Professors colony extn, Indian airforce road, East Tambaram",
    "lattitude": 12.9149033,
    "longitude": 80.1266472,
    "type": 6
  },
  {
    "name": "Coffee King, Adajan",
    "state": "Kerala",
    "city": "surat",
    "address": "1,2. Abhinandan Heights, Nr.madhuvan circle, LP Savani Rd, Adajan Gam, Adajan, Surat, Gujarat",
    "lattitude": 21.1917016,
    "longitude": 72.7900328,
    "type": 6
  },
  {
    "name": "Oyo Townhouse 278 Rohini",
    "state": "Kerala",
    "city": "delhi",
    "address": "6-A, Pocket 27, Sector-24, Rohini, Delhi, 110085, New Delhi, Delhi",
    "lattitude": 28.7328878,
    "longitude": 77.0841225,
    "type": 6
  },
  {
    "name": "Ather Space Jaipur",
    "state": "Kerala",
    "city": "jaipur",
    "address": "BL Tower, 2, Tonk Rd, near Sanghi Farm, Durgapura",
    "lattitude": 26.854201,
    "longitude": 75.794615,
    "type": 6
  },
  {
    "name": "Ather Space, Lajpat Nagar",
    "state": "Kerala",
    "city": "delhi",
    "address": "A-32, Feroze Gandhi Rd, Lajpat Nagar II, Delhi",
    "lattitude": 28.5705131,
    "longitude": 77.2368888,
    "type": 6
  },
  {
    "name": "HiLite Mall",
    "state": "Kerala",
    "city": "calicut",
    "address": "G1003, NH 66, Kozhikode Bypass, Poovangal, Kozhikode, Kerala",
    "lattitude": 11.248533,
    "longitude": 75.8334487,
    "type": 6
  },
  {
    "name": "Zozoz Pizzeria",
    "state": "Kerala",
    "city": "hyderabad",
    "address": "Rd Number 45, opposite Khazana, CBI Colony, Jubilee Hills, Hyderabad, Telangana",
    "lattitude": 17.4306503,
    "longitude": 78.4020035,
    "type": 6
  },
  {
    "name": "Heart Cup Coffee, Gachibowli",
    "state": "Kerala",
    "city": "hyderabad",
    "address": "Old Mumbai Hwy, next to HP Petrol Pump (Venkatadri Fuel Point, FCI Employees Cooperative Housing Society, Indira Nagar, Gachibowli, Hyderabad, Telangana",
    "lattitude": 17.4453566,
    "longitude": 78.3556014,
    "type": 6
  },
  {
    "name": "NAKSHATRA PURE VEG",
    "state": "Kerala",
    "city": "chennai",
    "address": "No.93, Bazaar Road, Madipakkam Main Rd, Ram Nagar South, Madipakkam",
    "lattitude": 12.9644294,
    "longitude": 80.2118897,
    "type": 6
  },
  {
    "name": "Pepper & Tarragon Club Caffe",
    "state": "Gujarat",
    "city": "hyderabad",
    "address": "Opposite to Aparna Sarovar, Nalagandla, Telangana",
    "lattitude": 17.46377,
    "longitude": 78.3088,
    "type": 6
  },
  {
    "name": "Ather Space, Trichy",
    "state": "Maharashtra",
    "city": "tiruchirappalli",
    "address": "20/C113, 5th Cross, Thillai Nagar,Trichy - 620018",
    "lattitude": 10.8240776,
    "longitude": 78.684925,
    "type": 6
  },
  {
    "name": "Narahari Silk House",
    "state": "Gujarat",
    "city": "hyderabad",
    "address": "18-6-828, Lal Darwaza Rd, Balagunj, Lal Darwaza South, Lal Darwaza, Hyderabad, Telangana",
    "lattitude": 17.34763,
    "longitude": 78.475397,
    "type": 6
  },
  {
    "name": "VR Surat",
    "state": "Gujarat",
    "city": "surat",
    "address": "Dumas Rd, Magdalla, Surat, Gujarat",
    "lattitude": 21.1451737,
    "longitude": 72.7569487,
    "type": 6
  },
  {
    "name": "WeFix Automobile",
    "state": "Delhi",
    "city": "pune",
    "address": "Plot no.27(Residential, PCNTDA, Sector 10, Shriram Colony, Bhosari, Pune, Maharashtra ,Bhosari",
    "lattitude": 18.648377246379,
    "longitude": 73.8298662608401,
    "type": 6
  },
  {
    "name": "The Vizag Drive In",
    "state": "Delhi",
    "city": "visakhapatnam",
    "address": "4-72-12, Beach Road, next to BPCL Petrol Bunk, Lawsons Bay Colony, Visakhapatnam, Andhra Pradesh",
    "lattitude": 17.7314545,
    "longitude": 83.3405749,
    "type": 6
  },
  {
    "name": "Ather Space, Visakhapatnam",
    "state": "Maharashtra",
    "city": "visakhapatnam",
    "address": "Railway New Colony Rd, Sri Siddi Enclave, Railway New Colony, Visakhapatnam, Andhra Pradesh",
    "lattitude": 17.727627,
    "longitude": 83.2957312,
    "type": 6
  },
  {
    "name": "Hotel Yogi Midtown",
    "state": "Maharashtra",
    "city": "mumbai",
    "address": "Plot No DX 12,Thane - Belapur Road D' Zone Bonsari, Village, TTC Industrial Area, Turbhe, Navi Mumbai, Maharashtra ,Thane",
    "lattitude": 19.0640261000026,
    "longitude": 73.0197154300262,
    "type": 6
  },
  {
    "name": "Breadworld, Jawahar Nagar",
    "state": "Maharashtra",
    "city": "kochi",
    "address": "Subhash Chandra Bose Road,  Jawahar Nagar, Kadavanthra,  Ernakulam, Kerala",
    "lattitude": 9.9721366,
    "longitude": 76.3020765,
    "type": 6
  },
  {
    "name": "Host The Hospitality Store (Breadworld, Thykoodam)",
    "state": "Haryana",
    "city": "kochi",
    "address": "Thykoodam Service Rd, Vyttila,  Thykoodam, Kochi,  Kerala",
    "lattitude": 9.96185111999512,
    "longitude": 76.31884765625,
    "type": 6
  },
  {
    "name": "Breadworld, Mavelipuram",
    "state": "Haryana",
    "city": "kochi",
    "address": "7/5 1 6- 1, 2, 3,  Seaport u2013 Airport Rd, Mavelipuram, Kakkanad, Kerala",
    "lattitude": 10.0231762,
    "longitude": 76.3411644,
    "type": 6
  },
  {
    "name": "Breadworld, Petta",
    "state": "Haryana",
    "city": "kochi",
    "address": "50/698 pushpamangalam Heritage, petta Maradu Road Near Gandhi Square",
    "lattitude": 9.9449301,
    "longitude": 76.3354211,
    "type": 6
  },
  {
    "name": "Ather Space, Kozhikode",
    "state": "Haryana",
    "city": "calicut",
    "address": "MCC Cross Rd, Vellayil, Kozhikode, Kerala",
    "lattitude": 11.264453,
    "longitude": 75.7773662,
    "type": 6
  },
  {
    "name": "AtherSpace JP Nagar",
    "state": "Maharashtra",
    "city": "bengaluru",
    "address": "292, Outer Ring Rd, J P Nagar Phase 5",
    "lattitude": 12.9062039682694,
    "longitude": 77.5908095423095,
    "type": 6
  },
  {
    "name": "Kohinoor MCGM parking",
    "state": "Maharashtra",
    "city": "mumbai",
    "address": "Kohinoor Square, Kasaravadi, Dadar, Mumbai, Maharashtra",
    "lattitude": 19.0246088948704,
    "longitude": 72.842820210728,
    "type": 6
  },
  {
    "name": "AtherGrid - Bhavsar",
    "state": "Maharashtra",
    "city": "nashik",
    "address": "Shop No. 5, ITI Ambad Road Kartikey Nagar Stop, Kamatwade, Nashik, Maharashtra,Kuthwad",
    "lattitude": 19.9782307026474,
    "longitude": 73.7468528059045,
    "type": 6
  },
  {
    "name": "Bhavsar's AtherGrid 2",
    "state": "Maharashtra",
    "city": "nashik",
    "address": "18/08, Rajratna Nagar, Pawan Nagar, Nashik, Maharashtra",
    "lattitude": 19.9714488737097,
    "longitude": 73.7559054108409,
    "type": 6
  },
  {
    "name": "BMC Parking Runwal Greens",
    "state": "Maharashtra",
    "city": "mumbai",
    "address": "Nahur West, Industrial Area, Bhandup West, Mumbai, Maharashtra",
    "lattitude": 19.1593952,
    "longitude": 72.945112,
    "type": 6
  },
  {
    "name": "BMC Market Bhandup",
    "state": "Gujarat",
    "city": "mumbai",
    "address": "320, 3rd Floor, BMC Market, Station Road, Bhandup West, next to Dreamz Mall, Bhandup (W, Bhandup East, Mumbai, Maharashtra",
    "lattitude": 19.1447758224472,
    "longitude": 72.9371466284051,
    "type": 6
  },
  {
    "name": "Trichy Sarathas",
    "state": "Maharashtra",
    "city": "tiruchirappalli",
    "address": "No. 45, NSB Rd, Teppakulam, Tamil Nadu",
    "lattitude": 10.8267085,
    "longitude": 78.6959116,
    "type": 6
  },
  {
    "name": "Ather space, Indore",
    "state": "Punjab",
    "city": "indore",
    "address": "TBC Tower, Geeta Bhawan, AB Road",
    "lattitude": 22.7194463,
    "longitude": 75.884181,
    "type": 6
  },
  {
    "name": "DISHKO Eatery",
    "state": "Uttar Pradesh",
    "city": "trivandrum",
    "address": "TC 26, Taj Arcade, 860(1, Bakery Jct Rd, Bakery Junction, Panavila, Thycaud, Thiruvananthapuram, Kerala",
    "lattitude": 8.4997772,
    "longitude": 76.9542647,
    "type": 6
  },
  {
    "name": "Charminar Chowrasta Cafe",
    "state": "Madhya Pradesh",
    "city": "visakhapatnam",
    "address": "12-43/4 GF, R K Nagar, Pothinamallayya Palem, Visakhapatnam, Andhra Pradesh",
    "lattitude": 17.8000838,
    "longitude": 83.3473927,
    "type": 6
  },
  {
    "name": "Best Western Ramachandra Hotel",
    "state": "West Bengal",
    "city": "visakhapatnam",
    "address": "8-8-36, GNT Rd, Medical Center, Gajuwaka, Visakhapatnam, Andhra Pradesh",
    "lattitude": 17.6861805,
    "longitude": 83.2065285,
    "type": 6
  },
  {
    "name": "Cygnett Inn Ramachandra",
    "state": "West Bengal",
    "city": "visakhapatnam",
    "address": "31-2-4/5, NH16, opp. All India Radio Station, Kurmannapalem, Visakhapatnam, Andhra Pradesh",
    "lattitude": 17.6851429,
    "longitude": 83.1578664,
    "type": 6
  },
  {
    "name": "Moondru Kambam Nellai Muthu Vilas Sweets & Bakes",
    "state": "West Bengal",
    "city": "coimbatore",
    "address": "#422 A, Palakkad Main Rd, near Cassino Furniture, Kuniyamuthur, Tamil Nadu",
    "lattitude": 10.9611662,
    "longitude": 76.954832,
    "type": 6
  },
  {
    "name": "CakeBee, Sulur",
    "state": "Jharkhand",
    "city": "coimbatore",
    "address": "322/2 DEFENCE COLONY 2nd STREET, KADAMBADI VILLAGE, Sulur, Tamil Nadu",
    "lattitude": 11.024978,
    "longitude": 77.1667265,
    "type": 6
  },
  {
    "name": "Tiruppur Sree Annapoorna",
    "state": "Maharashtra",
    "city": "coimbatore",
    "address": "Road, Rayan Kovil, Avinashi, Tamil Nadu",
    "lattitude": 11.1750315,
    "longitude": 77.2634385,
    "type": 6
  },
  {
    "name": "Aastha Talkies",
    "state": "West Bengal",
    "city": "indore",
    "address": "Near 452010, Patni Pura Rd, Nanda Nagar, Indore, Madhya Pradesh",
    "lattitude": 22.7431448,
    "longitude": 75.8841123,
    "type": 6
  },
  {
    "name": "Ather Space Nashik",
    "state": "West Bengal",
    "city": "nashik",
    "address": "Ather Space - Ather Energy's Experience Centre ( Patwa Auto Drive), Patwa EV Zone, Trimbakeshwar Rd, opp. Sebel Hotel, Nashik, Maharashtra",
    "lattitude": 19.9944454848697,
    "longitude": 73.764436759524,
    "type": 6
  },
  {
    "name": "Just Loaf, Kozhikode",
    "state": "West Bengal",
    "city": "calicut",
    "address": "Beach Rd, opp. Kozhikode Corporation Office, Mananchira, Kozhikode, Kerala , India",
    "lattitude": 11.2541077,
    "longitude": 75.7712783,
    "type": 6
  },
  {
    "name": "Just Loaf, Perinthalmanna",
    "state": "Telangana",
    "city": "malappuram",
    "address": "Just Loaf, Perinthalmanna Jubilee Bypass, Road, Perintalmanna, Kerala , India",
    "lattitude": 10.9882867,
    "longitude": 76.2250874,
    "type": 6
  },
  {
    "name": "Hocco Eatery, Vastral",
    "state": "Telangana",
    "city": "ahmedabad",
    "address": "MADHAV 99 19, Nirant Cross Rd, Mahadev Nagar Tekra, Ahmedabad, Gujarat",
    "lattitude": 22.9992398,
    "longitude": 72.6594584,
    "type": 6
  },
  {
    "name": "Prestige Falcon Towers",
    "state": "Telangana",
    "city": "bengaluru",
    "address": "No 19, Brunton Rd, Craig Park Layout, Ashok Nagar,",
    "lattitude": 12.971272,
    "longitude": 77.614552,
    "type": 6
  },
  {
    "name": "Reliance Digital Kamlanagar",
    "state": "Jharkhand",
    "city": "delhi",
    "address": "37 Bunglow Road Kamla Nagar, opp. Amitabh Guest House, Civil Lines, New Delhi",
    "lattitude": 28.6839369,
    "longitude": 77.2022968,
    "type": 6
  },
  {
    "name": "Food Sixteen Restaurant",
    "state": "Bihar",
    "city": "delhi",
    "address": "Metro Station, A-16, Grand Trunk Rd, near Adarsh Nagar, Indira Nagar, Azadpur, New Delhi",
    "lattitude": 28.7169145,
    "longitude": 77.168538,
    "type": 6
  },
  {
    "name": "Abhay Graphics II",
    "state": "Andhra Pradesh",
    "city": "pune",
    "address": "D-II, Plot no 32, Unit B - Near Kia Showroom, In front of HDFC Colony, Chinchwad",
    "lattitude": 18.6532425324259,
    "longitude": 73.8034013253093,
    "type": 6
  },
  {
    "name": "Miramar Residency - Blive",
    "state": "Jammu",
    "city": "goa",
    "address": "Miramar Beach, Miramar, Panaji, Goa",
    "lattitude": 15.4845196013223,
    "longitude": 73.809121797395,
    "type": 6
  },
  {
    "name": "Old Goa Residency- Blive",
    "state": "Rajasthan",
    "city": "goa",
    "address": "Near Old Goa Fire Brigade, Goa",
    "lattitude": 15.5000488654027,
    "longitude": 73.9141273127392,
    "type": 6
  },
  {
    "name": "Eham Digital",
    "state": "Rajasthan",
    "city": "calicut",
    "address": "2nd Unison Tower, Thondayad Junction Thondayad Bye Pass, near Star Care Hospital, Kozhikode, Kerala",
    "lattitude": 11.2648469,
    "longitude": 75.8109713,
    "type": 6
  },
  {
    "name": "Darshan super market",
    "state": "Tamil Nadu",
    "city": "chennai",
    "address": "Chitrakoot Complex,No.91/18A,OMR,Egattur opp to Flsmidth,Chennai-603103,Chengalpattu, District, Chennai, Tamil Nadu",
    "lattitude": 12.8291702,
    "longitude": 80.2298531,
    "type": 6
  },
  {
    "name": "Mall of Mysore",
    "state": "Uttar Pradesh",
    "city": "mysore",
    "address": "No.C-1, M.G Road Indira Nagar, Nazarbad Mohalla, Extension",
    "lattitude": 12.298036,
    "longitude": 76.663958,
    "type": 6
  },
  {
    "name": "Cafe Coffee Day, Gokulam Road",
    "state": "West Bengal",
    "city": "mysore",
    "address": "6th Main, Gokulam Road, V V Mohalla Ground Floor, C/O Star Wing Building",
    "lattitude": 12.326612,
    "longitude": 76.626866,
    "type": 6
  },
  {
    "name": "CarTuneZ",
    "state": "Tamil Nadu",
    "city": "chennai",
    "address": "Mount Poonamallee Rd, Swaminatha Nagar, Goparasanallur, Chennai, Tamil Nadu",
    "lattitude": 13.0416621313573,
    "longitude": 80.1264474028141,
    "type": 6
  },
  {
    "name": "Shree Shanthi's the garment shop",
    "state": "Tamil Nadu",
    "city": "chennai",
    "address": "1, 10th Cross St, near water tank. Customer care: 9940169111, 9789964111, Indira Nagar, Adyar, Chennai, Tamil Nadu",
    "lattitude": 12.9966632,
    "longitude": 80.2517792,
    "type": 6
  },
  {
    "name": "The Smith's Cafe & bakery",
    "state": "Maharashtra",
    "city": "chennai",
    "address": "Balaji Nagar 2nd Cross St, Balaji Nagar, Ponniammanmedu, Chennai, Tamil Nadu",
    "lattitude": 13.125599,
    "longitude": 80.2241501,
    "type": 6
  },
  {
    "name": "Sri Murugan Stores",
    "state": "Andhra Pradesh",
    "city": "chennai",
    "address": "9&10, Tejraj colony, Agaram Main Rd, Selaiyur, Chennai, Tamil Nadu",
    "lattitude": 12.9056714,
    "longitude": 80.1421391,
    "type": 6
  },
  {
    "name": "Firewood Restaurant",
    "state": "Odisha",
    "city": "jaipur",
    "address": "B-136A, RAJENDRA MARG, near JANTA STORE, CROSSING, BapuNagar",
    "lattitude": 26.8898540600064,
    "longitude": 75.8089775422449,
    "type": 6
  },
  {
    "name": "Oyo Silverkey 42750",
    "state": "Gujarat",
    "city": "gurugram",
    "address": "170, Medicity, Islampur Colony, Sector 38,  Gurugram",
    "lattitude": 28.434959,
    "longitude": 77.0442743,
    "type": 6
  },
  {
    "name": "Amrit Residency",
    "state": "Gujarat",
    "city": "gurugram",
    "address": "Opposite Ayyappa Temple, Dundahera, Surya Vihar, Sector 21, Gurugram",
    "lattitude": 28.5184277,
    "longitude": 77.0719022,
    "type": 6
  },
  {
    "name": "Cafe coffee day, Kazhakootam, Trivandrum",
    "state": "Karnataka",
    "city": "trivandrum",
    "address": "Queen Tower, Kazhakootam, Thiruvananthapuram, Kerala",
    "lattitude": 8.549333,
    "longitude": 76.877257,
    "type": 6
  },
  {
    "name": "Peep Kitchen",
    "state": "Karnataka",
    "city": "goa",
    "address": "Risara Luxury , Ground Floor , Taliegao Market Road , Near Taliegao Near Taliegao Community Centre Taliegao, Panaji, Goa",
    "lattitude": 15.4701676,
    "longitude": 73.8261271,
    "type": 6
  },
  {
    "name": "Blive HO",
    "state": "Karnataka",
    "city": "goa",
    "address": "Plot No. 22-B, GF-1, Happy Home Co-op. Soc, La Campala Colony, Miramar, Panaji, Goa",
    "lattitude": 15.4853333,
    "longitude": 73.8135871,
    "type": 6
  },
  {
    "name": "Karkhana - The Food Garage",
    "state": "Karnataka",
    "city": "raipur",
    "address": "SHOP No. 12 JAI SHADARAM MARKET DHAMTARI ROAD, NH30, Raipur, Chhattisgarh",
    "lattitude": 21.1889342,
    "longitude": 81.7015232,
    "type": 6
  },
  {
    "name": "Jyoti Guest House",
    "state": "Karnataka",
    "city": "jaipur",
    "address": "8/238, Sector 8, Malviya Nagar, Jaipur",
    "lattitude": 26.8433189,
    "longitude": 75.8037396,
    "type": 6
  },
  {
    "name": "Xperia",
    "state": "Karnataka",
    "city": "ahmedabad",
    "address": "Opposite Radhe Fortune, Bhat Circle, S.P Ring Road, Ah,edabad",
    "lattitude": 23.1168523,
    "longitude": 72.6288522,
    "type": 6
  },
  {
    "name": "Ather Space - Gujranwala Town",
    "state": "Tamil Nadu",
    "city": "delhi",
    "address": "A 11, GT Karnal Rd, near Vinayak Hospital, Block A, Gujranwala Town, Delhi, 110009",
    "lattitude": 28.6990084,
    "longitude": 77.1833274,
    "type": 6
  },
  {
    "name": "Navneet Institute",
    "state": "Tamil Nadu",
    "city": "ahmedabad",
    "address": "101-102, Prarthana Complex, nr. Kakadia Hospital, opp. Dinesh Chambers, Bapunagar, Ahmedabad, Gujarat",
    "lattitude": 23.040249,
    "longitude": 72.6307112,
    "type": 6
  },
  {
    "name": "Shri Laxmi Kedar Jewellers",
    "state": "Telangana",
    "city": "nashik",
    "address": "Jijamata Rd, Bhandi Bazar, Saraf Bazar, Panchavati, Nashik, Maharashtra",
    "lattitude": 20.0052029021044,
    "longitude": 73.791297380718,
    "type": 6
  },
  {
    "name": "The Emerald Resort",
    "state": "Telangana",
    "city": "pune",
    "address": "Lonavala Annexe,Somatne, Old Mumbai - Pune Hwy, Near Pioneer Hospital, Tukaram Nagar, Talegaon Dabhade, Maharashtra",
    "lattitude": 18.7077154040181,
    "longitude": 73.6822930730169,
    "type": 6
  },
  {
    "name": "Inox Bund Garden Road",
    "state": "Telangana",
    "city": "pune",
    "address": "Plot No.D, Bund Garden Rd, Pune, Maharashtra",
    "lattitude": 18.5267515,
    "longitude": 73.8779382,
    "type": 6
  },
  {
    "name": "Black Spate",
    "state": "Telangana",
    "city": "jaipur",
    "address": "G-6, Shreenath Tower, Sector 2, Central Spine, Vidyadhar Nagar",
    "lattitude": 26.963612,
    "longitude": 75.7810224,
    "type": 6
  },
  {
    "name": "Barista",
    "state": "Telangana",
    "city": "pune",
    "address": "Shop 1-6,82/2/2a, Sahkarnagar, Parvati, Pune, Maharashtra",
    "lattitude": 18.4845962800607,
    "longitude": 73.8496819997945,
    "type": 6
  },
  {
    "name": "Precision Path Lab",
    "state": "Maharashtra",
    "city": "jaipur",
    "address": "72/2, Shipra Path, Patel Marg, Mansarovar, Jaipur, Rajasthan",
    "lattitude": 26.8547202,
    "longitude": 75.7731708,
    "type": 6
  },
  {
    "name": "Ather Space Goa",
    "state": "Maharashtra",
    "city": "goa",
    "address": "Betim-Pomburpa Rd, Alto- Betim Porvorim, Penha de Franu00e7a, Goa",
    "lattitude": 15.5230657,
    "longitude": 73.825913,
    "type": 6
  },
  {
    "name": "Ather test ride centre",
    "state": "Maharashtra",
    "city": "hyderabad",
    "address": "160/1, Patny Center, Sardar Patel Rd, Hyderabad, Telangana",
    "lattitude": 17.4435458,
    "longitude": 78.4798274,
    "type": 6
  },
  {
    "name": "Prestige Khoday Tower",
    "state": "Maharashtra",
    "city": "bengaluru",
    "address": "No 5, Raj Bhavan Road, Vasanth Nagar",
    "lattitude": 12.982728,
    "longitude": 77.594179,
    "type": 6
  },
  {
    "name": "Prestige Saleh Ahmed",
    "state": "Maharashtra",
    "city": "bengaluru",
    "address": "No 24, Lady Curzon Road, Tasker Town, Shivaji Nagar,",
    "lattitude": 12.980553,
    "longitude": 77.603318,
    "type": 6
  },
  {
    "name": "Mama Panda",
    "state": "Maharashtra",
    "city": "vijayawada",
    "address": "Royal arcade, beside sweet magic , opp to dvmanor, MG Rd, Vijayawada, Andhra Pradesh",
    "lattitude": 16.4992397,
    "longitude": 80.6481963,
    "type": 6
  },
  {
    "name": "AtherSpace Mysore",
    "state": "Delhi",
    "city": "mysore",
    "address": "#1A, A1, Hunsur Main Rd, Hinkal",
    "lattitude": 12.325053,
    "longitude": 76.611337,
    "type": 6
  },
  {
    "name": "Bamboo & Biryani",
    "state": "Uttar Pradesh",
    "city": "vijayawada",
    "address": "40-3-18, Kalyanam Ramarao St, Venkateswara Puram, Sidhartha Nagar, Labbipet, Vijayawada, Andhra Pradesh",
    "lattitude": 16.5009139,
    "longitude": 80.6472927,
    "type": 6
  },
  {
    "name": "Lodha Venezia CPL",
    "state": "Haryana",
    "city": "mumbai",
    "address": "GD Ambekar Marg, Lal Baug, Parel, Mumbai, Maharashtra",
    "lattitude": 18.9917205,
    "longitude": 72.841513,
    "type": 6
  },
  {
    "name": "Cafe Peter",
    "state": "Delhi",
    "city": "pune",
    "address": "Waman Ganesh Heights, Pashan Rd, Bavdhan, Pune, Maharashtra",
    "lattitude": 18.5105106,
    "longitude": 73.7819022,
    "type": 6
  },
  {
    "name": "Throttle Shrottle Moto Cafe",
    "state": "Delhi",
    "city": "gurugram",
    "address": "Faridabad - Gurgaon Rd, Baliawas, Bandhwari, Haryana 122102",
    "lattitude": 28.428213,
    "longitude": 77.1405458,
    "type": 6
  },
  {
    "name": "Inox R21",
    "state": "Maharashtra",
    "city": "ahmedabad",
    "address": "Plot No 145, 2nd Floor, Royal Honda Showroom, Sector 21, Gandhinagar, Gujarat",
    "lattitude": 23.2316208,
    "longitude": 72.6682058,
    "type": 6
  },
  {
    "name": "Inox R16",
    "state": "Maharashtra",
    "city": "ahmedabad",
    "address": "Cluster_gandhinagar 2 Office, Sector 16, Gandhinagar, Gujarat",
    "lattitude": 23.2310524,
    "longitude": 72.648583,
    "type": 6
  },
  {
    "name": "Acre Bengaluru",
    "state": "Maharashtra",
    "city": "bengaluru",
    "address": "No 63 , International Airport Road, Meenugunte, Jala Hobli, Yelahanka, Taluk",
    "lattitude": 13.189056,
    "longitude": 77.644524,
    "type": 6
  },
  {
    "name": "AtherSpace Hubli",
    "state": "Gujarat",
    "city": "hubli",
    "address": "P. B. Road, Bhairidevarkoppa",
    "lattitude": 15.387875,
    "longitude": 75.1016179,
    "type": 6
  },
  {
    "name": "Antares Restaurant and Beach Club",
    "state": "Karnataka",
    "city": "goa",
    "address": "Small Vagator, Ozran Beach, Vagator, Goa",
    "lattitude": 15.5940487274399,
    "longitude": 73.7349023341238,
    "type": 6
  },
  {
    "name": "The Wood Apple Cafe",
    "state": "Maharashtra",
    "city": "siliguri",
    "address": "SONARTORI VILLAGE, Patel Road, Ward 2, Pradhan Nagar, Siliguri, West Bengal 734003",
    "lattitude": 26.7286006,
    "longitude": 88.4163575,
    "type": 6
  },
  {
    "name": "The Cindrella Hotel",
    "state": "Maharashtra",
    "city": "siliguri",
    "address": "3rd Mile, Sevoke Rd, Chayan Para, Salugara, Siliguri, West Bengal 734008",
    "lattitude": 26.7555785,
    "longitude": 88.4418232,
    "type": 6
  },
  {
    "name": "Cafe Cornucopia",
    "state": "Maharashtra",
    "city": "mysore",
    "address": "22nd Cross, 14th Main Rd, C Block, Vijay Nagar 3rd Stage, Garudachar Layout",
    "lattitude": 12.316689,
    "longitude": 76.603223,
    "type": 6
  },
  {
    "name": "Ather Space Raipur",
    "state": "Uttar Pradesh",
    "city": "raipur",
    "address": "EC Location:  Atherspace Raipur, Shop No.2, Ground Floor, Plot No. 11/5, Block No. 94, Beside Hotel Mayura, Jai Stambh Chowk, Raipur, Chhattisgarh",
    "lattitude": 21.243932,
    "longitude": 81.6347283,
    "type": 6
  },
  {
    "name": "Ather Space - Janakpuri",
    "state": "Uttar Pradesh",
    "city": "delhi",
    "address": "Ground floor, BF-1, Janakpuri, Jail Road, New Delhi 110058",
    "lattitude": 28.6255909,
    "longitude": 77.1009332,
    "type": 6
  },
  {
    "name": "Ather Space Surat",
    "state": "Telangana",
    "city": "surat",
    "address": "G1 and G2, Milagro Milestone, opposite UM Road, Someshwara Enclave, Vesu, Surat, Gujarat",
    "lattitude": 21.1529496,
    "longitude": 72.778545,
    "type": 6
  },
  {
    "name": "Ather Space - Lalbagh",
    "state": "Telangana",
    "city": "lucknow",
    "address": "38 A Foresith Road, Near Novelty Cinema, opp. Daya Nidhan Park, Lalbagh, Lucknow, Uttar Pradesh 226001",
    "lattitude": 26.8458895,
    "longitude": 80.9379184,
    "type": 6
  },
  {
    "name": "Magenta House - Mumbai",
    "state": "Telangana",
    "city": "mumbai",
    "address": "TTC Industrial Area, MIDC Industrial Area, Sanpada, Navi Mumbai",
    "lattitude": 19.0687045429028,
    "longitude": 73.0229869206999,
    "type": 6
  },
  {
    "name": "Ather Space, Trivandrum",
    "state": "Telangana",
    "city": "trivandrum",
    "address": "Sycamore Complex, Plamoodu Junction, Pattom",
    "lattitude": 8.5145049,
    "longitude": 76.9437173,
    "type": 6
  },
  {
    "name": "Ather space, Guindy, Chennai",
    "state": "Tamil Nadu",
    "city": "chennai",
    "address": "Near 111-110, Mount Rd, Guindy Institutional Area, Little Mount, Guindy, Chennai, Tamil Nadu",
    "lattitude": 13.0124771297175,
    "longitude": 80.2206032896631,
    "type": 6
  },
  {
    "name": "Ranthal Gardens Restaurant",
    "state": "Uttar Pradesh",
    "city": "trivandrum",
    "address": "near post office, Nemom, Kerala",
    "lattitude": 8.45477423944579,
    "longitude": 77.0024490353778,
    "type": 6
  },
  {
    "name": "Kalikkalam Sports",
    "state": "Uttar Pradesh",
    "city": "trivandrum",
    "address": "Opposite Infosys/UST, On Road Opposite Infosys Main Gate, behind Al Saj Arena, Poundukadavu",
    "lattitude": 8.53396462982223,
    "longitude": 76.8807341186971,
    "type": 6
  },
  {
    "name": "Ather Space Nagole",
    "state": "Maharashtra",
    "city": "hyderabad",
    "address": "Near Sunrise cars, Plot no.64/B, Mamatha Nagar, Nagole X Road, near Supraja Hospital, Hyderabad, Telangana",
    "lattitude": 17.377497,
    "longitude": 78.5580849,
    "type": 6
  },
  {
    "name": "MGS Tata Autofab",
    "state": "Maharashtra",
    "city": "lucknow",
    "address": "C 52, Tedhi Pulia, Ring Road, Near Jagrani Hospital, Lucknow - 226022, Uttar Pradesh, India",
    "lattitude": 26.8979557,
    "longitude": 80.9664589,
    "type": 6
  },
  {
    "name": "The Hazelnut Factory",
    "state": "Gujarat",
    "city": "lucknow",
    "address": "B 192, Niralanagar, Lucknow - 226020",
    "lattitude": 26.8727547,
    "longitude": 80.9407119,
    "type": 6
  },
  {
    "name": "The Hazelnut Factory, Alambagh",
    "state": "Gujarat",
    "city": "lucknow",
    "address": "LGF & UGF RB Tower, B-172, Kanpur Rd, Behind iDelta | Phoenix Mall, Lucknow, Lucknow, Uttar Pradesh 226005",
    "lattitude": 26.7991124,
    "longitude": 80.8982589,
    "type": 6
  },
  {
    "name": "Woods Cafe Indira Priyadarshani Park",
    "state": "Haryana",
    "city": "ghaziabad",
    "address": "Indira Priyadarshani Park, Arthla, Mohan Nagar, Ghaziabad, Uttar Pradesh 201001",
    "lattitude": 28.6749316,
    "longitude": 77.3982382,
    "type": 6
  },
  {
    "name": "Ansal Plaza Mall",
    "state": "Karnataka",
    "city": "noida",
    "address": "ANSAL PLAZA MALL SHOPPING COMPLEX, Pari Chowk, Greater Noida, Uttar Pradesh 201310",
    "lattitude": 28.4646154,
    "longitude": 77.5080343,
    "type": 6
  },
  {
    "name": "MR Hypermarket",
    "state": "Maharashtra",
    "city": "calicut",
    "address": "Wayanad Rd, Moozhikkal, Kozhikode, Kerala",
    "lattitude": 11.296198,
    "longitude": 75.8307817,
    "type": 6
  },
  {
    "name": "Ather Space Siliguri",
    "state": "Delhi",
    "city": "siliguri",
    "address": "Sevoke Rd, opposite Vishal Cinema Hall, Ward Number 13, Bankim Nagar, Siliguri, West Bengal",
    "lattitude": 26.7321074,
    "longitude": 88.4322712,
    "type": 6
  },
  {
    "name": "Mitraa Super Market",
    "state": "Maharashtra",
    "city": "visakhapatnam",
    "address": "BRTS Rd, A Zone, Sujatha Nagar, Pendurthi, Visakhapatnam, Andhra Pradesh",
    "lattitude": 17.799256,
    "longitude": 83.210797,
    "type": 6
  },
  {
    "name": "Patanjali Mega Store Sakkardara",
    "state": "Tamil Nadu",
    "city": "nagpur",
    "address": "205, Sakkardara Police Chowki Rd, Anand Nagar, Azamshah Layout, Nagpur, Maharashtra",
    "lattitude": 21.129812213883,
    "longitude": 79.1148607177335,
    "type": 6
  },
  {
    "name": "Patanjali Store Wardhaman Nagar",
    "state": "Rajasthan",
    "city": "nagpur",
    "address": "36-65, Nagpur - Bhandara - Rajnandgaon - Raipur Hwy, Chapru Nagar, Shashtri Nagar",
    "lattitude": 21.148294,
    "longitude": 79.128434,
    "type": 6
  },
  {
    "name": "Throttle Shrottle Moto Cafe, Noida",
    "state": "Kerala",
    "city": "noida",
    "address": "Village rohillapur. Opposite step by step school sector-132, Noida - 201304",
    "lattitude": 28.5123936,
    "longitude": 77.3743113,
    "type": 6
  },
  {
    "name": "Sangeetha Mobiles, HBR Layout",
    "state": "Gujarat",
    "city": "bengaluru",
    "address": "No 54, 80 Feet Main Road, Next to Muthoot Finance, HBR Layout,",
    "lattitude": 13.025618,
    "longitude": 77.629122,
    "type": 6
  },
  {
    "name": "Hyatt Raipur",
    "state": "Maharashtra",
    "city": "raipur",
    "address": "National Highway 6, Jivan Vihar, Labhandih, Chhattisgarh",
    "lattitude": 21.239994,
    "longitude": 81.6840898,
    "type": 6
  },
  {
    "name": "Vasant oasis",
    "state": "Uttar Pradesh",
    "city": "mumbai",
    "address": "Borosil Plot,off, Makwana Rd, Marol, Andheri East, Mumbai, Maharashtra",
    "lattitude": 19.1146146,
    "longitude": 72.8840941,
    "type": 6
  },
  {
    "name": "NMR Enclave",
    "state": "Uttar Pradesh",
    "city": "bengaluru",
    "address": "7/22, NMR enclave, Ejipura main Road , Near Ejipura signal",
    "lattitude": 12.942047,
    "longitude": 77.631059,
    "type": 6
  },
  {
    "name": "Cafe Labasa Goa",
    "state": "Uttarakhand",
    "city": "goa",
    "address": "590/III-A, Caramorod, Chinchinim, Goa",
    "lattitude": 15.2251264,
    "longitude": 73.9795328,
    "type": 6
  },
  {
    "name": "The Coffee Stories",
    "state": "Andhra pradesh",
    "city": "pune",
    "address": "2, Meher classic, shop no:2, opp N.K.Ashiyana society, Marketyard, pune, near unity bakers, Pune, Maharashtra",
    "lattitude": 18.4879225398295,
    "longitude": 73.8727627039089,
    "type": 6
  },
  {
    "name": "Sulaimani Club, Kottakkal",
    "state": "Tamil Nadu",
    "city": "malappuram",
    "address": "XXMX+J2F, Palathara, Kerala",
    "lattitude": 10.9841315056431,
    "longitude": 75.997859110154,
    "type": 6
  },
  {
    "name": "Shree Purohit Thali",
    "state": "Kerala",
    "city": "nashik",
    "address": "bus stop, Andhashala, Nashik - Pune Rd, Nashik, Maharashtra",
    "lattitude": 19.9615119,
    "longitude": 73.8272912,
    "type": 6
  },
  {
    "name": "Morning Star Car Accessories",
    "state": "Karnataka",
    "city": "goa",
    "address": "Jackni Vaddo, Parra, Goa",
    "lattitude": 15.5706252229647,
    "longitude": 73.7915868619433,
    "type": 6
  },
  {
    "name": "Magenta, Hosur Road",
    "state": "Kerala",
    "city": "bengaluru",
    "address": "Pattalama Layout, Hosur Rd, Singasandra",
    "lattitude": 12.876703,
    "longitude": 77.646505,
    "type": 6
  },
  {
    "name": "OFFROAD, Motorcycle Accessories Shop",
    "state": "Kerala",
    "city": "trivandrum",
    "address": "Vazhayila - Kallayam Rd, Vazhayila, Padmanabha Nagar, Thiruvananthapuram, Kerala",
    "lattitude": 8.5513563,
    "longitude": 76.9726234,
    "type": 6
  },
  {
    "name": "The Chocolate Room, Bangalore",
    "state": "Maharashtra",
    "city": "bengaluru",
    "address": "No 412, 4th G Main Road, 2nd Block, HRBR Layout, Kalyan Nagar,",
    "lattitude": 13.022915,
    "longitude": 77.639338,
    "type": 6
  },
  {
    "name": "AtherSpace Nagpur",
    "state": "Punjab",
    "city": "nagpur",
    "address": "Ojas Building, Beside Batukbhai Jewellers, West High Court Road, Dharampeth",
    "lattitude": 21.1393999805338,
    "longitude": 79.0604764831562,
    "type": 6
  },
  {
    "name": "Xavier Institute of Engineering",
    "state": "Rajasthan",
    "city": "mumbai",
    "address": "Opposite S.L.Raheja Hospital, Mahim Causeway, Mahim (West), Raheja Hospital Marg, Mumbai, Maharashtra",
    "lattitude": 19.0452082935871,
    "longitude": 72.8415417466136,
    "type": 6
  },
  {
    "name": "Purnima Sweet's",
    "state": "Goa",
    "city": "nashik",
    "address": "Takli Rd, opp Vishwabharti society, Swanand Society, Dwarka, Nashik, Maharashtra",
    "lattitude": 19.9962790389959,
    "longitude": 73.8033591842543,
    "type": 6
  },
  {
    "name": "CADD Centre, RK Salai",
    "state": "Goa",
    "city": "chennai",
    "address": "Yellow Pages Building, 25, Dr Radha Krishnan Salai, Dwarka Colony, Mylapore",
    "lattitude": 13.044485,
    "longitude": 80.268708,
    "type": 6
  },
  {
    "name": "Adyar Ananda Bhavan, Navakari | Zeon",
    "state": "Madhya Pradesh",
    "city": "coimbatore",
    "address": "285, Palakkad main road, Navakarai",
    "lattitude": 10.8556755,
    "longitude": 76.862332,
    "type": 6
  },
  {
    "name": "Lakshmi Pazhamudir And Supermarket",
    "state": "Maharashtra",
    "city": "coimbatore",
    "address": "post Gas company, Mettupalayam Rd, Ranganayaki Nagar, Dhamu Nagar, Therkkuppalayam, Coimbatore, Tamil Nadu",
    "lattitude": 11.138138477319,
    "longitude": 76.9407310322839,
    "type": 6
  },
  {
    "name": "Decathlon Bannerghatta",
    "state": "Karnataka",
    "city": "bengaluru",
    "address": "Bannerghatta Main Rd, Kalena Agrahara",
    "lattitude": 12.863595,
    "longitude": 77.590927,
    "type": 6
  },
  {
    "name": "MR Hyper Market, Wayanad Road",
    "state": "Maharashtra",
    "city": "calicut",
    "address": "8V9M+CM3, Kozhikode, Kerala",
    "lattitude": 11.3185163,
    "longitude": 75.8842814,
    "type": 6
  },
  {
    "name": "KR Journey Planners",
    "state": "Tamil Nadu",
    "city": "surat",
    "address": "Beside Sahaj Super Store, Anand Mahal Rd, Honey Park, Adajan Gam, Adajan, Surat, Gujarat",
    "lattitude": 21.1483732,
    "longitude": 72.7654739,
    "type": 6
  },
  {
    "name": "KR Journey",
    "state": "Tamil Nadu",
    "city": "surat",
    "address": "p767, Ashwini Kumar Road, New GIDC",
    "lattitude": 21.2126944261511,
    "longitude": 72.8451179602812,
    "type": 6
  },
  {
    "name": "Shiven Satellite Vision",
    "state": "Puducherry",
    "city": "goa",
    "address": "City Plaza, Phase 2, Pedda, Margao, Goa",
    "lattitude": 15.2697635073183,
    "longitude": 73.9549504486853,
    "type": 6
  },
  {
    "name": "Detailing Bull",
    "state": "Jammu & Kashmir",
    "city": "gurugram",
    "address": "F7, Shushant Lok 2 Near Hong Kong Bazar, Sector 57, Gurugram, Haryana 122011",
    "lattitude": 28.4195244,
    "longitude": 77.0885144,
    "type": 6
  },
  {
    "name": "SAR Motors",
    "state": "Rajasthan",
    "city": "guwahati",
    "address": "Bora Commercial Complex, opposite ABC Compound, Nalapara, Lokhra, Assam",
    "lattitude": "",
    "longitude": "",
    "type": 6
  },
  {
    "name": "R R Sales",
    "state": "Madhya Pradesh",
    "city": "guwahati",
    "address": "Saraf Building, Near Police Reserve RLY gate, no 2, Assam Trunk Rd, Guwahati, Assam",
    "lattitude": 26.1763362,
    "longitude": 91.7404708,
    "type": 6
  },
  {
    "name": "Vishnu Tradex, Shreekunj Elegance",
    "state": "Delhi",
    "city": "ahmedabad",
    "address": "2 SHREEKUNJ ELIGANCE, near SAHAJ PARADISE BANGLOW, Ahmedabad, Gujarat",
    "lattitude": 23.0735526,
    "longitude": 72.520875,
    "type": 6
  },
  {
    "name": "Naksh Auto World",
    "state": "Maharashtra",
    "city": "ghaziabad",
    "address": "Maharaja Agarsain Marg, Mohan Meakin Society, Sector 5, Vasundhara, Ghaziabad, Uttar Pradesh 201012",
    "lattitude": 28.6635603,
    "longitude": 77.3740057,
    "type": 6
  },
  {
    "name": "Royal Global University",
    "state": "Delhi",
    "city": "guwahati",
    "address": "NH-37, opp. Tirupati Balaji Temple",
    "lattitude": 26.112203,
    "longitude": 91.7241576,
    "type": 6
  },
  {
    "name": "Loom Solar Warehouse",
    "state": "Delhi",
    "city": "faridabad",
    "address": "Plot No. 21, 1, Mathura Rd, Pocket 3, Rajiv Enclave, Sector 6, Faridabad, Haryana 121006",
    "lattitude": 28.3520623,
    "longitude": 77.3007942,
    "type": 6
  },
  {
    "name": "Ather Space, Guwahati",
    "state": "Punjab",
    "city": "guwahati",
    "address": "2nd Floor, JKON building, opp. Sonaram School, Bharalumukh",
    "lattitude": 26.172606,
    "longitude": 91.7293442,
    "type": 6
  },
  {
    "name": "Guy Car  Steamer",
    "state": "Rajasthan",
    "city": "bengaluru",
    "address": "No 60 Next to Sobha Classic 83-B Narayanareddy Layout, Haralur Main Rd",
    "lattitude": 12.904089,
    "longitude": 77.662251,
    "type": 6
  },
  {
    "name": "AtherSpace Belgaum",
    "state": "Rajasthan",
    "city": "belgaum",
    "address": "Bellad Enterprises, Vengurla - Belgaum Rd, Vinayak Nagar, Vijaynagar, Belagavi",
    "lattitude": 15.868772,
    "longitude": 74.487863,
    "type": 6
  },
  {
    "name": "Ather Service Centre",
    "state": "Rajasthan",
    "city": "guwahati",
    "address": "House No 20,Janapath Lane,Ulubari",
    "lattitude": 26.170766,
    "longitude": 91.7608176,
    "type": 6
  },
  {
    "name": "Ather Space Vijayawada",
    "state": "Delhi",
    "city": "vijayawada",
    "address": "KP Nagar Main Rd, Gurunanak Nagar, K P Nagar, Benz Circle, Vijayawada, Andhra Pradesh",
    "lattitude": 16.5007264,
    "longitude": 80.6574292,
    "type": 6
  },
  {
    "name": "Turf Trident",
    "state": "Maharashtra",
    "city": "chennai",
    "address": "56, Lakeview garden, Korattur",
    "lattitude": 13.1221926,
    "longitude": 80.1890017,
    "type": 6
  },
  {
    "name": "Ather Space Tirupati",
    "state": "Maharashtra",
    "city": "tirupati",
    "address": "Vedhavyasa Bhavan, AIR Bypass Road, Royal Nagar, Tirupati, Andhra Pradesh",
    "lattitude": 13.6226445,
    "longitude": 79.414697,
    "type": 6
  },
  {
    "name": "Area 51 - The cafu00e9 hideout",
    "state": "Maharashtra",
    "city": "visakhapatnam",
    "address": "Area 51- The cafu00e9 hideout, Hill view conventions, IT Sez,Hill No.2 Plot-F,on the way to Mouri tech, Andhra Pradesh",
    "lattitude": 17.8083501,
    "longitude": 83.3888006,
    "type": 6
  },
  {
    "name": "Ather Space  Aurangabad",
    "state": "Maharashtra",
    "city": "aurangabad",
    "address": "Gopinath Chambers, Adalat Rd, near Chunilal Petrol Pump, Konkanwadi, Aurangabad, Maharashtra",
    "lattitude": 19.871912330989,
    "longitude": 75.3251880766865,
    "type": 6
  },